recording_time_s,mission_time_s,goal_x,goal_y,goal_z,reference_x,reference_y,reference_z,actual_x,actual_y,actual_z,goal_error_x,goal_error_y,goal_error_z,goal_position_error,tracking_error_x,tracking_error_y,tracking_error_z,tracking_error,goal_yaw,reference_yaw,yaw_error,body_velocity_x,body_velocity_y,body_velocity_z,map_velocity_x,map_velocity_y,map_velocity_z,speed,roll,pitch,yaw,angular_speed_x,angular_speed_y,angular_speed_z,commanded_motor_rpm_m1,commanded_motor_rpm_m2,commanded_motor_rpm_m3,commanded_motor_rpm_m4,horizontal_saturated,altitude_saturated,attitude_saturated,mixer_saturated,raw_obstacle_distance,safety_clearance,mission_waypoint_index,mission_complete,mission_success,navigation_goal_index,navigation_visited_goals,navigation_complete,navigation_success,interactive_ready,interactive_active,interactive_goal_count,collision_state,external_wrench_active,external_force_x,external_force_y,external_force_z,integral_compensation_x,integral_compensation_y
0.0,,,,,,,,0.0,0.0,1.4808335737296716,,,,,,,,,,,,0.0,0.0,0.025020204062036765,0.0,0.0,0.025020204062036765,0.025020204062036765,0.0,0.0,0.0,0.0,0.0,0.0,,,,,,,,,2.2,1.9500000000000002,,,,,,,,,,,,,0.0,0.0,0.0,,
0.004968881607055664,,,,,,,,0.0,0.0,1.4809578644777408,,,,,,,,,,,,0.0,0.0,0.024858149613836287,0.0,0.0,0.024858149613836287,0.024858149613836287,0.0,0.0,0.0,0.0,0.0,0.0,,,,,,,,,2.2,1.9500000000000002,,,,,,,,,,,,,0.0,0.0,0.0,,
0.010001897811889648,,,,,,,,0.0,0.0,1.4810813504265572,,,,,,,,,,,,0.0,0.0,0.02469718976327538,0.0,0.0,0.02469718976327538,0.02469718976327538,0.0,0.0,0.0,0.0,0.0,0.0,10802.4550040177,10802.4550040177,10802.4550040177,10802.4550040177,0,0,0,0,2.2,1.9500000000000002,,,,,,,,,,,,,0.0,0.0,0.0,0.0,0.0
0.01505732536315918,,0.0,0.0,1.5,,,,0.0,0.0,1.481204036531919,0.0,0.0,0.01879596346808099,0.01879596346808099,,,,,0.0,,0.0,0.0,0.0,0.024537221072370233,0.0,0.0,0.024537221072370233,0.024537221072370233,0.0,0.0,0.0,0.0,0.0,0.0,10802.4550040177,10802.4550040177,10802.4550040177,10802.4550040177,0,0,0,0,2.2,1.9500000000000002,0,1,,,,,,,,1,,,0.0,0.0,0.0,0.0,0.0
0.020033836364746094,,0.0,0.0,1.5,,,,0.0,0.0,1.4813259281968612,0.0,0.0,0.018674071803138848,0.018674071803138848,,,,,0.0,,0.0,0.0,0.0,0.024378332988448378,0.0,0.0,0.024378332988448378,0.024378332988448378,0.0,0.0,0.0,0.0,0.0,0.0,10802.667550018217,10802.667550018217,10802.667550018217,10802.667550018217,0,0,0,0,2.2,1.9500000000000002,0,1,,,,,,,,1,,0,0.0,0.0,0.0,0.0,0.0
0.024969816207885742,,0.0,0.0,1.5,,,,0.0,0.0,1.4814470303138383,0.0,0.0,0.018552969686161713,0.018552969686161713,,,,,0.0,,0.0,0.0,0.0,0.02422042339542347,0.0,0.0,0.02422042339542347,0.02422042339542347,0.0,0.0,0.0,0.0,0.0,0.0,10802.667550018217,10802.667550018217,10802.667550018217,10802.667550018217,0,0,0,0,2.2,1.9500000000000002,0,1,,,,,,,,1,,0,0.0,0.0,0.0,0.0,0.0
0.02996659278869629,,0.0,0.0,1.5,,,,0.0,0.0,1.4815673482168117,0.0,0.0,0.018432651783188314,0.018432651783188314,,,,,0.0,,0.0,0.0,0.0,0.024063580594691988,0.0,0.0,0.024063580594691988,0.024063580594691988,0.0,0.0,0.0,0.0,0.0,0.0,10802.877372091918,10802.877372091918,10802.877372091918,10802.877372091918,0,0,0,0,2.2,1.9500000000000002,0,1,,,,,,,,1,,0,0.0,0.0,0.0,0.0,0.0
0.035164594650268555,,0.0,0.0,1.5,,,,0.0,0.0,1.481686886735689,0.0,0.0,0.018313113264311065,0.018313113264311065,,,,,0.0,,0.0,0.0,0.0,0.02390770377544434,0.0,0.0,0.02390770377544434,0.02390770377544434,0.0,0.0,0.0,0.0,0.0,0.0,10802.877372091918,10802.877372091918,10802.877372091918,10802.877372091918,0,0,0,0,2.2,1.9500000000000002,0,1,,,,,,,,1,,0,0.0,0.0,0.0,0.0,0.0
0.03996706008911133,,0.0,0.0,1.5,,,,0.0,0.0,1.4818056511362272,0.0,0.0,0.018194348863772802,0.018194348863772802,,,,,0.0,,0.0,0.0,0.0,0.023752880107637646,0.0,0.0,0.023752880107637646,0.023752880107637646,0.0,0.0,0.0,0.0,0.0,0.0,10803.084504697372,10803.084504697372,10803.084504697372,10803.084504697372,0,0,0,0,2.2,1.9500000000000002,0,1,,,,,,,,1,,0,0.0,0.0,0.0,0.0,0.0
0.044977664947509766,,0.0,0.0,1.5,,,,0.0,0.0,1.4819236461865737,0.0,0.0,0.018076353813426316,0.018076353813426316,,,,,0.0,,0.0,0.0,0.0,0.02359901006931936,0.0,0.0,0.02359901006931936,0.02359901006931936,0.0,0.0,0.0,0.0,0.0,0.0,10803.084504697372,10803.084504697372,10803.084504697372,10803.084504697372,0,0,0,0,2.2,1.9500000000000002,0,1,,,,,,,,1,,0,0.0,0.0,0.0,0.0,0.0
0.049967288970947266,,0.0,0.0,1.5,,,,0.0,0.0,1.4820408770851403,0.0,0.0,0.017959122914859682,0.017959122914859682,,,,,0.0,,0.0,0.0,0.0,0.023446179713321212,0.0,0.0,0.023446179713321212,0.023446179713321212,0.0,0.0,0.0,0.0,0.0,0.0,10803.288981870715,10803.288981870715,10803.288981870715,10803.288981870715,0,0,0,0,2.2,1.9500000000000002,0,1,,,,,,,,1,,0,0.0,0.0,0.0,0.0,0.0
0.0551149845123291,,0.0,0.0,1.5,,,,0.0,0.0,1.482157348539092,0.0,0.0,0.01784265146090802,0.01784265146090802,,,,,0.0,,0.0,0.0,0.0,0.0232942907903267,0.0,0.0,0.0232942907903267,0.0232942907903267,0.0,0.0,0.0,0.0,0.0,0.0,10803.288981870715,10803.288981870715,10803.288981870715,10803.288981870715,0,0,0,0,2.2,1.9500000000000002,0,1,,,,,,,,1,,0,0.0,0.0,0.0,0.0,0.0
0.06000542640686035,,0.0,0.0,1.5,,,,0.0,0.0,1.482273065680343,0.0,0.0,0.017726934319657106,0.017726934319657106,,,,,0.0,,0.0,0.0,0.0,0.023143428250180436,0.0,0.0,0.023143428250180436,0.023143428250180436,0.0,0.0,0.0,0.0,0.0,0.0,10803.490837230402,10803.490837230402,10803.490837230402,10803.490837230402,0,0,0,0,2.2,1.9500000000000002,0,1,,,,,,,,1,,0,0.0,0.0,0.0,0.0,0.0
0.06496596336364746,,0.0,0.0,1.5,,,,0.0,0.0,1.4823880331558439,0.0,0.0,0.017611966844156113,0.017611966844156113,,,,,0.0,,0.0,0.0,0.0,0.02299349510017756,0.0,0.0,0.02299349510017756,0.02299349510017756,0.0,0.0,0.0,0.0,0.0,0.0,10803.490837230402,10803.490837230402,10803.490837230402,10803.490837230402,0,0,0,0,2.2,1.9500000000000002,0,1,,,,,,,,1,,0,0.0,0.0,0.0,0.0,0.0
0.07001900672912598,,0.0,0.0,1.5,,,,0.0,0.0,1.4825022560318495,0.0,0.0,0.017497743968150514,0.017497743968150514,,,,,0.0,,0.0,0.0,0.0,0.022844575201140197,0.0,0.0,0.022844575201140197,0.022844575201140197,0.0,0.0,0.0,0.0,0.0,0.0,10803.690103981953,10803.690103981953,10803.690103981953,10803.690103981953,0,0,0,0,2.2,1.9500000000000002,0,1,,,,,,,,1,,0,0.0,0.0,0.0,0.0,0.0
0.07499575614929199,,0.0,0.0,1.5,,,,0.0,0.0,1.4826157388958552,0.0,0.0,0.017384261104144816,0.017384261104144816,,,,,0.0,,0.0,0.0,0.0,0.022696572801145166,0.0,0.0,0.022696572801145166,0.022696572801145166,0.0,0.0,0.0,0.0,0.0,0.0,10803.690103981953,10803.690103981953,10803.690103981953,10803.690103981953,0,0,0,0,2.2,1.9500000000000002,0,1,,,,,,,,1,,0,0.0,0.0,0.0,0.0,0.0
0.07996964454650879,,0.0,0.0,1.5,,,,0.0,0.0,1.482728486749284,0.0,0.0,0.017271513250715964,0.017271513250715964,,,,,0.0,,0.0,0.0,0.0,0.022549570685784892,0.0,0.0,0.022549570685784892,0.022549570685784892,0.0,0.0,0.0,0.0,0.0,0.0,10803.886814922635,10803.886814922635,10803.886814922635,10803.886814922635,0,0,0,0,2.2,1.9500000000000002,0,1,,,,,,,,1,,0,0.0,0.0,0.0,0.0,0.0
0.08496880531311035,,0.0,0.0,1.5,,,,0.0,0.0,1.4828405041209254,0.0,0.0,0.017159495879074615,0.017159495879074615,,,,,0.0,,0.0,0.0,0.0,0.022403474328280226,0.0,0.0,0.022403474328280226,0.022403474328280226,0.0,0.0,0.0,0.0,0.0,0.0,10803.886814922635,10803.886814922635,10803.886814922635,10803.886814922635,0,0,0,0,2.2,1.9500000000000002,0,1,,,,,,,,1,,0,0.0,0.0,0.0,0.0,0.0
0.09000396728515625,,0.0,0.0,1.5,,,,0.0,0.0,1.4829517959481884,0.0,0.0,0.017048204051811622,0.017048204051811622,,,,,0.0,,0.0,0.0,0.0,0.022258365452617022,0.0,0.0,0.022258365452617022,0.022258365452617022,0.0,0.0,0.0,0.0,0.0,0.0,10804.081002446108,10804.081002446108,10804.081002446108,10804.081002446108,0,0,0,0,2.2,1.9500000000000002,0,1,,,,,,,,1,,0,0.0,0.0,0.0,0.0,0.0
0.09498310089111328,,0.0,0.0,1.5,,,,0.0,0.0,1.483062366701897,0.0,0.0,0.01693763329810305,0.01693763329810305,,,,,0.0,,0.0,0.0,0.0,0.022114150741712604,0.0,0.0,0.022114150741712604,0.022114150741712604,0.0,0.0,0.0,0.0,0.0,0.0,10804.081002446108,10804.081002446108,10804.081002446108,10804.081002446108,0,0,0,0,2.2,1.9500000000000002,0,1,,,,,,,,1,,0,0.0,0.0,0.0,0.0,0.0
0.09998178482055664,,0.0,0.0,1.5,,,,0.0,0.0,1.483172221256254,0.0,0.0,0.01682777874374608,0.01682777874374608,,,,,0.0,,0.0,0.0,0.0,0.021970910871401537,0.0,0.0,0.021970910871401537,0.021970910871401537,0.0,0.0,0.0,0.0,0.0,0.0,10804.27269854703,10804.27269854703,10804.27269854703,10804.27269854703,0,0,0,0,2.2,1.9500000000000002,0,1,,,,,,,,1,,0,0.0,0.0,0.0,0.0,0.0
0.10497546195983887,,0.0,0.0,1.5,,,,0.0,0.0,1.483281364024849,0.0,0.0,0.016718635975150997,0.016718635975150997,,,,,0.0,,0.0,0.0,0.0,0.021828553719038184,0.0,0.0,0.021828553719038184,0.021828553719038184,0.0,0.0,0.0,0.0,0.0,0.0,10804.27269854703,10804.27269854703,10804.27269854703,10804.27269854703,0,0,0,0,2.2,1.9500000000000002,0,1,,,,,,,,1,,0,0.0,0.0,0.0,0.0,0.0
0.10999774932861328,,0.0,0.0,1.5,,,,0.0,0.0,1.483389799819477,0.0,0.0,0.01661020018052306,0.01661020018052306,,,,,0.0,,0.0,0.0,0.0,0.021687158925595217,0.0,0.0,0.021687158925595217,0.021687158925595217,0.0,0.0,0.0,0.0,0.0,0.0,10804.46193482563,10804.46193482563,10804.46193482563,10804.46193482563,0,0,0,0,2.2,1.9500000000000002,0,1,,,,,,,,1,,0,0.0,0.0,0.0,0.0,0.0
0.11509847640991211,,0.0,0.0,1.5,,,,0.0,0.0,1.483497532997216,0.0,0.0,0.016502467002784016,0.016502467002784016,,,,,0.0,,0.0,0.0,0.0,0.021546635547790537,0.0,0.0,0.021546635547790537,0.021546635547790537,0.0,0.0,0.0,0.0,0.0,0.0,10804.46193482563,10804.46193482563,10804.46193482563,10804.46193482563,0,0,0,0,2.2,1.9500000000000002,0,1,,,,,,,,1,,0,0.0,0.0,0.0,0.0,0.0
0.12003111839294434,,0.0,0.0,1.5,,,,0.0,0.0,1.4836045683082404,0.0,0.0,0.01639543169175961,0.01639543169175961,,,,,0.0,,0.0,0.0,0.0,0.021407062204860296,0.0,0.0,0.021407062204860296,0.021407062204860296,0.0,0.0,0.0,0.0,0.0,0.0,10804.648742492222,10804.648742492222,10804.648742492222,10804.648742492222,0,0,0,0,2.2,1.9500000000000002,0,1,,,,,,,,1,,0,0.0,0.0,0.0,0.0,0.0
0.12500405311584473,,0.0,0.0,1.5,,,,0.0,0.0,1.4837109100538304,0.0,0.0,0.01628908994616962,0.01628908994616962,,,,,0.0,,0.0,0.0,0.0,0.02126834911799637,0.0,0.0,0.02126834911799637,0.02126834911799637,0.0,0.0,0.0,0.0,0.0,0.0,10804.648742492222,10804.648742492222,10804.648742492222,10804.648742492222,0,0,0,0,2.2,1.9500000000000002,0,1,,,,,,,,1,,0,0.0,0.0,0.0,0.0,0.0
0.13004803657531738,,0.0,0.0,1.5,,,,0.0,0.0,1.4838165629233186,0.0,0.0,0.01618343707668135,0.01618343707668135,,,,,0.0,,0.0,0.0,0.0,0.021130573897661695,0.0,0.0,0.021130573897661695,0.021130573897661695,0.0,0.0,0.0,0.0,0.0,0.0,10804.833152371688,10804.833152371688,10804.833152371688,10804.833152371688,0,0,0,0,2.2,1.9500000000000002,0,1,,,,,,,,1,,0,0.0,0.0,0.0,0.0,0.0
0.13499712944030762,,0.0,0.0,1.5,,,,0.0,0.0,1.4839215311628928,0.0,0.0,0.016078468837107174,0.016078468837107174,,,,,0.0,,0.0,0.0,0.0,0.020993647914814367,0.0,0.0,0.020993647914814367,0.020993647914814367,0.0,0.0,0.0,0.0,0.0,0.0,10804.833152371688,10804.833152371688,10804.833152371688,10804.833152371688,0,0,0,0,2.2,1.9500000000000002,0,1,,,,,,,,1,,0,0.0,0.0,0.0,0.0,0.0
0.14001774787902832,,0.0,0.0,1.5,,,,0.0,0.0,1.4840258194018126,0.0,0.0,0.01597418059818745,0.01597418059818745,,,,,0.0,,0.0,0.0,0.0,0.020857647783947234,0.0,0.0,0.020857647783947234,0.020857647783947234,0.0,0.0,0.0,0.0,0.0,0.0,10805.015194907935,10805.015194907935,10805.015194907935,10805.015194907935,0,0,0,0,2.2,1.9500000000000002,0,1,,,,,,,,1,,0,0.0,0.0,0.0,0.0,0.0
0.14516496658325195,,0.0,0.0,1.5,,,,0.0,0.0,1.4841294318318687,0.0,0.0,0.01587056816813126,0.01587056816813126,,,,,0.0,,0.0,0.0,0.0,0.02072248601125665,0.0,0.0,0.02072248601125665,0.02072248601125665,0.0,0.0,0.0,0.0,0.0,0.0,10805.015194907935,10805.015194907935,10805.015194907935,10805.015194907935,0,0,0,0,2.2,1.9500000000000002,0,1,,,,,,,,1,,0,0.0,0.0,0.0,0.0,0.0
0.14998936653137207,,0.0,0.0,1.5,,,,0.0,0.0,1.4842323730230083,0.0,0.0,0.015767626976991744,0.015767626976991744,,,,,0.0,,0.0,0.0,0.0,0.020588238227910036,0.0,0.0,0.020588238227910036,0.020588238227910036,0.0,0.0,0.0,0.0,0.0,0.0,10805.19490016826,10805.19490016826,10805.19490016826,10805.19490016826,0,0,0,0,2.2,1.9500000000000002,0,1,,,,,,,,1,,0,0.0,0.0,0.0,0.0,0.0
0.15510320663452148,,0.0,0.0,1.5,,,,0.0,0.0,1.4843346471133132,0.0,0.0,0.0156653528866868,0.0156653528866868,,,,,0.0,,0.0,0.0,0.0,0.0204548180609919,0.0,0.0,0.0204548180609919,0.0204548180609919,0.0,0.0,0.0,0.0,0.0,0.0,10805.19490016826,10805.19490016826,10805.19490016826,10805.19490016826,0,0,0,0,2.2,1.9500000000000002,0,1,,,,,,,,1,,0,0.0,0.0,0.0,0.0,0.0
0.15996861457824707,,0.0,0.0,1.5,,,,0.0,0.0,1.4844362586141673,0.0,0.0,0.015563741385832719,0.015563741385832719,,,,,0.0,,0.0,0.0,0.0,0.020322300170832402,0.0,0.0,0.020322300170832402,0.020322300170832402,0.0,0.0,0.0,0.0,0.0,0.0,10805.372297847749,10805.372297847749,10805.372297847749,10805.372297847749,0,0,0,0,2.2,1.9500000000000002,0,1,,,,,,,,1,,0,0.0,0.0,0.0,0.0,0.0
0.164963960647583,,0.0,0.0,1.5,,,,0.0,0.0,1.4845372116106235,0.0,0.0,0.015462788389376536,0.015462788389376536,,,,,0.0,,0.0,0.0,0.0,0.020190599291229835,0.0,0.0,0.020190599291229835,0.020190599291229835,0.0,0.0,0.0,0.0,0.0,0.0,10805.372297847749,10805.372297847749,10805.372297847749,10805.372297847749,0,0,0,0,2.2,1.9500000000000002,0,1,,,,,,,,1,,0,0.0,0.0,0.0,0.0,0.0
0.17002606391906738,,0.0,0.0,1.5,,,,0.0,0.0,1.4846375105562435,0.0,0.0,0.01536248944375651,0.01536248944375651,,,,,0.0,,0.0,0.0,0.0,0.020059789124010578,0.0,0.0,0.020059789124010578,0.020059789124010578,0.0,0.0,0.0,0.0,0.0,0.0,10805.547417273561,10805.547417273561,10805.547417273561,10805.547417273561,0,0,0,0,2.2,1.9500000000000002,0,1,,,,,,,,1,,0,0.0,0.0,0.0,0.0,0.0
0.17500066757202148,,0.0,0.0,1.5,,,,0.0,0.0,1.484737159483722,0.0,0.0,0.01526284051627802,0.01526284051627802,,,,,0.0,,0.0,0.0,0.0,0.019929785495686112,0.0,0.0,0.019929785495686112,0.019929785495686112,0.0,0.0,0.0,0.0,0.0,0.0,10805.547417273561,10805.547417273561,10805.547417273561,10805.547417273561,0,0,0,0,2.2,1.9500000000000002,0,1,,,,,,,,1,,0,0.0,0.0,0.0,0.0,0.0
0.17996454238891602,,0.0,0.0,1.5,,,,0.0,0.0,1.4848361627895308,0.0,0.0,0.015163837210469211,0.015163837210469211,,,,,0.0,,0.0,0.0,0.0,0.019800661161759596,0.0,0.0,0.019800661161759596,0.019800661161759596,0.0,0.0,0.0,0.0,0.0,0.0,10805.720287409225,10805.720287409225,10805.720287409225,10805.720287409225,0,0,0,0,2.2,1.9500000000000002,0,1,,,,,,,,1,,0,0.0,0.0,0.0,0.0,0.0
0.18497133255004883,,0.0,0.0,1.5,,,,0.0,0.0,1.484934524454669,0.0,0.0,0.015065475545330997,0.015065475545330997,,,,,0.0,,0.0,0.0,0.0,0.01967233302762698,0.0,0.0,0.01967233302762698,0.01967233302762698,0.0,0.0,0.0,0.0,0.0,0.0,10805.720287409225,10805.720287409225,10805.720287409225,10805.720287409225,0,0,0,0,2.2,1.9500000000000002,0,1,,,,,,,,1,,0,0.0,0.0,0.0,0.0,0.0
0.18996500968933105,,0.0,0.0,1.5,,,,0.0,0.0,1.4850322488192416,0.0,0.0,0.014967751180758437,0.014967751180758437,,,,,0.0,,0.0,0.0,0.0,0.0195448729144976,0.0,0.0,0.0195448729144976,0.0195448729144976,0.0,0.0,0.0,0.0,0.0,0.0,10805.890936858861,10805.890936858861,10805.890936858861,10805.890936858861,0,0,0,0,2.2,1.9500000000000002,0,1,,,,,,,,1,,0,0.0,0.0,0.0,0.0,0.0
0.1950395107269287,,0.0,0.0,1.5,,,,0.0,0.0,1.4851293398132066,0.0,0.0,0.014870660186793394,0.014870660186793394,,,,,0.0,,0.0,0.0,0.0,0.019418198792992992,0.0,0.0,0.019418198792992992,0.019418198792992992,0.0,0.0,0.0,0.0,0.0,0.0,10805.890936858861,10805.890936858861,10805.890936858861,10805.890936858861,0,0,0,0,2.2,1.9500000000000002,0,1,,,,,,,,1,,0,0.0,0.0,0.0,0.0,0.0
0.20000505447387695,,0.0,0.0,1.5,,,,0.0,0.0,1.4852258017210163,0.0,0.0,0.014774198278983741,0.014774198278983741,,,,,0.0,,0.0,0.0,0.0,0.019292381561908736,0.0,0.0,0.019292381561908736,0.019292381561908736,0.0,0.0,0.0,0.0,0.0,0.0,10806.059393871392,10806.059393871392,10806.059393871392,10806.059393871392,0,0,0,0,2.2,1.9500000000000002,0,1,,,,,,,,1,,0,0.0,0.0,0.0,0.0,0.0
0.20507526397705078,,0.0,0.0,1.5,,,,0.0,0.0,1.4853216384222343,0.0,0.0,0.014678361577765697,0.014678361577765697,,,,,0.0,,0.0,0.0,0.0,0.01916734024360101,0.0,0.0,0.01916734024360101,0.01916734024360101,0.0,0.0,0.0,0.0,0.0,0.0,10806.059393871392,10806.059393871392,10806.059393871392,10806.059393871392,0,0,0,0,2.2,1.9500000000000002,0,1,,,,,,,,1,,0,0.0,0.0,0.0,0.0,0.0
0.20996546745300293,,0.0,0.0,1.5,,,,0.0,0.0,1.4854168541463653,0.0,0.0,0.014583145853634738,0.014583145853634738,,,,,0.0,,0.0,0.0,0.0,0.019043144826184116,0.0,0.0,0.019043144826184116,0.019043144826184116,0.0,0.0,0.0,0.0,0.0,0.0,10806.22568634467,10806.22568634467,10806.22568634467,10806.22568634467,0,0,0,0,2.2,1.9500000000000002,0,1,,,,,,,,1,,0,0.0,0.0,0.0,0.0,0.0
0.21516799926757812,,0.0,0.0,1.5,,,,0.0,0.0,1.4855114527232174,0.0,0.0,0.014488547276782615,0.014488547276782615,,,,,0.0,,0.0,0.0,0.0,0.018919715370424008,0.0,0.0,0.018919715370424008,0.018919715370424008,0.0,0.0,0.0,0.0,0.0,0.0,10806.22568634467,10806.22568634467,10806.22568634467,10806.22568634467,0,0,0,0,2.2,1.9500000000000002,0,1,,,,,,,,1,,0,0.0,0.0,0.0,0.0,0.0
0.21996617317199707,,0.0,0.0,1.5,,,,0.0,0.0,1.4856054383280441,0.0,0.0,0.014394561671955852,0.014394561671955852,,,,,0.0,,0.0,0.0,0.0,0.01879712096534025,0.0,0.0,0.01879712096534025,0.01879712096534025,0.0,0.0,0.0,0.0,0.0,0.0,10806.389841829621,10806.389841829621,10806.389841829621,10806.389841829621,0,0,0,0,2.2,1.9500000000000002,0,1,,,,,,,,1,,0,0.0,0.0,0.0,0.0,0.0
0.2249741554260254,,0.0,0.0,1.5,,,,0.0,0.0,1.4856988147415289,0.0,0.0,0.014301185258471127,0.014301185258471127,,,,,0.0,,0.0,0.0,0.0,0.01867528269694776,0.0,0.0,0.01867528269694776,0.01867528269694776,0.0,0.0,0.0,0.0,0.0,0.0,10806.389841829621,10806.389841829621,10806.389841829621,10806.389841829621,0,0,0,0,2.2,1.9500000000000002,0,1,,,,,,,,1,,0,0.0,0.0,0.0,0.0,0.0
0.22996830940246582,,0.0,0.0,1.5,,,,0.0,0.0,1.4857915860853619,0.0,0.0,0.014208413914638118,0.014208413914638118,,,,,0.0,,0.0,0.0,0.0,0.018554268766613778,0.0,0.0,0.018554268766613778,0.018554268766613778,0.0,0.0,0.0,0.0,0.0,0.0,10806.551887534297,10806.551887534297,10806.551887534297,10806.551887534297,0,0,0,0,2.2,1.9500000000000002,0,1,,,,,,,,1,,0,0.0,0.0,0.0,0.0,0.0
0.23514890670776367,,0.0,0.0,1.5,,,,0.0,0.0,1.4858837560917248,0.0,0.0,0.01411624390827515,0.01411624390827515,,,,,0.0,,0.0,0.0,0.0,0.018434001272603685,0.0,0.0,0.018434001272603685,0.018434001272603685,0.0,0.0,0.0,0.0,0.0,0.0,10806.551887534297,10806.551887534297,10806.551887534297,10806.551887534297,0,0,0,0,2.2,1.9500000000000002,0,1,,,,,,,,1,,0,0.0,0.0,0.0,0.0,0.0
0.24003887176513672,,0.0,0.0,1.5,,,,0.0,0.0,1.4859753288294244,0.0,0.0,0.014024671170575598,0.014024671170575598,,,,,0.0,,0.0,0.0,0.0,0.01831454753993234,0.0,0.0,0.01831454753993234,0.01831454753993234,0.0,0.0,0.0,0.0,0.0,0.0,10806.711850327905,10806.711850327905,10806.711850327905,10806.711850327905,0,0,0,0,2.2,1.9500000000000002,0,1,,,,,,,,1,,0,0.0,0.0,0.0,0.0,0.0
0.24515986442565918,,0.0,0.0,1.5,,,,0.0,0.0,1.4860663079827559,0.0,0.0,0.013933692017244148,0.013933692017244148,,,,,0.0,,0.0,0.0,0.0,0.018195830666277404,0.0,0.0,0.018195830666277404,0.018195830666277404,0.0,0.0,0.0,0.0,0.0,0.0,10806.711850327905,10806.711850327905,10806.711850327905,10806.711850327905,0,0,0,0,2.2,1.9500000000000002,0,1,,,,,,,,1,,0,0.0,0.0,0.0,0.0,0.0
0.24997401237487793,,0.0,0.0,1.5,,,,0.0,0.0,1.4861566975683131,0.0,0.0,0.013843302431686855,0.013843302431686855,,,,,0.0,,0.0,0.0,0.0,0.018077917111460496,0.0,0.0,0.018077917111460496,0.018077917111460496,0.0,0.0,0.0,0.0,0.0,0.0,10806.869756744814,10806.869756744814,10806.869756744814,10806.869756744814,0,0,0,0,2.2,1.9500000000000002,0,1,,,,,,,,1,,0,0.0,0.0,0.0,0.0,0.0
0.25507092475891113,,0.0,0.0,1.5,,,,0.0,0.0,1.4862465012231125,0.0,0.0,0.013753498776887474,0.013753498776887474,,,,,0.0,,0.0,0.0,0.0,0.017960730959891917,0.0,0.0,0.017960730959891917,0.017960730959891917,0.0,0.0,0.0,0.0,0.0,0.0,10806.869756744814,10806.869756744814,10806.869756744814,10806.869756744814,0,0,0,0,2.2,1.9500000000000002,0,1,,,,,,,,1,,0,0.0,0.0,0.0,0.0,0.0
0.26002049446105957,,0.0,0.0,1.5,,,,0.0,0.0,1.4863357229121987,0.0,0.0,0.013664277087801269,0.013664277087801269,,,,,0.0,,0.0,0.0,0.0,0.0178443378172201,0.0,0.0,0.0178443378172201,0.0178443378172201,0.0,0.0,0.0,0.0,0.0,0.0,10807.025632988496,10807.025632988496,10807.025632988496,10807.025632988496,0,0,0,0,2.2,1.9500000000000002,0,1,,,,,,,,1,,0,0.0,0.0,0.0,0.0,0.0
0.2649867534637451,,0.0,0.0,1.5,,,,0.0,0.0,1.4864243662259091,0.0,0.0,0.013575633774090878,0.013575633774090878,,,,,0.0,,0.0,0.0,0.0,0.017728662742065124,0.0,0.0,0.017728662742065124,0.017728662742065124,0.0,0.0,0.0,0.0,0.0,0.0,10807.025632988496,10807.025632988496,10807.025632988496,10807.025632988496,0,0,0,0,2.2,1.9500000000000002,0,1,,,,,,,,1,,0,0.0,0.0,0.0,0.0,0.0
0.2700076103210449,,0.0,0.0,1.5,,,,0.0,0.0,1.4865124350783931,0.0,0.0,0.013487564921606854,0.013487564921606854,,,,,0.0,,0.0,0.0,0.0,0.01761377049678472,0.0,0.0,0.01761377049678472,0.01761377049678472,0.0,0.0,0.0,0.0,0.0,0.0,10807.179504935448,10807.179504935448,10807.179504935448,10807.179504935448,0,0,0,0,2.2,1.9500000000000002,0,1,,,,,,,,1,,0,0.0,0.0,0.0,0.0,0.0
0.2750535011291504,,0.0,0.0,1.5,,,,0.0,0.0,1.4865999330139024,0.0,0.0,0.013400066986097636,0.013400066986097636,,,,,0.0,,0.0,0.0,0.0,0.01749958710184067,0.0,0.0,0.01749958710184067,0.01749958710184067,0.0,0.0,0.0,0.0,0.0,0.0,10807.179504935448,10807.179504935448,10807.179504935448,10807.179504935448,0,0,0,0,2.2,1.9500000000000002,0,1,,,,,,,,1,,0,0.0,0.0,0.0,0.0,0.0
0.2799842357635498,,0.0,0.0,1.5,,,,0.0,0.0,1.4866868638963375,0.0,0.0,0.01331313610366247,0.01331313610366247,,,,,0.0,,0.0,0.0,0.0,0.01738617648704673,0.0,0.0,0.01738617648704673,0.01738617648704673,0.0,0.0,0.0,0.0,0.0,0.0,10807.331398139044,10807.331398139044,10807.331398139044,10807.331398139044,0,0,0,0,2.2,1.9500000000000002,0,1,,,,,,,,1,,0,0.0,0.0,0.0,0.0,0.0
0.28504157066345215,,0.0,0.0,1.5,,,,0.0,0.0,1.48677323122445,0.0,0.0,0.013226768775550068,0.013226768775550068,,,,,0.0,,0.0,0.0,0.0,0.017273465622491494,0.0,0.0,0.017273465622491494,0.017273465622491494,0.0,0.0,0.0,0.0,0.0,0.0,10807.331398139044,10807.331398139044,10807.331398139044,10807.331398139044,0,0,0,0,2.2,1.9500000000000002,0,1,,,,,,,,1,,0,0.0,0.0,0.0,0.0,0.0
0.28998899459838867,,0.0,0.0,1.5,,,,0.0,0.0,1.4868590388125302,0.0,0.0,0.013140961187469768,0.013140961187469768,,,,,0.0,,0.0,0.0,0.0,0.017161517616057217,0.0,0.0,0.017161517616057217,0.017161517616057217,0.0,0.0,0.0,0.0,0.0,0.0,10807.481337833395,10807.481337833395,10807.481337833395,10807.481337833395,0,0,0,0,2.2,1.9500000000000002,0,1,,,,,,,,1,,0,0.0,0.0,0.0,0.0,0.0
0.2950551509857178,,0.0,0.0,1.5,,,,0.0,0.0,1.4869442901144072,0.0,0.0,0.013055709885592792,0.013055709885592792,,,,,0.0,,0.0,0.0,0.0,0.017050260375395636,0.0,0.0,0.017050260375395636,0.017050260375395636,0.0,0.0,0.0,0.0,0.0,0.0,10807.481337833395,10807.481337833395,10807.481337833395,10807.481337833395,0,0,0,0,2.2,1.9500000000000002,0,1,,,,,,,,1,,0,0.0,0.0,0.0,0.0,0.0
0.2999863624572754,,0.0,0.0,1.5,,,,0.0,0.0,1.4870289888953918,0.0,0.0,0.012971011104608188,0.012971011104608188,,,,,0.0,,0.0,0.0,0.0,0.016939756196937345,0.0,0.0,0.016939756196937345,0.016939756196937345,0.0,0.0,0.0,0.0,0.0,0.0,10807.629348937127,10807.629348937127,10807.629348937127,10807.629348937127,0,0,0,0,2.2,1.9500000000000002,0,1,,,,,,,,1,,0,0.0,0.0,0.0,0.0,0.0
0.3051276206970215,,0.0,0.0,1.5,,,,0.0,0.0,1.4871131385649616,0.0,0.0,0.012886861435038366,0.012886861435038366,,,,,0.0,,0.0,0.0,0.0,0.016829933913983162,0.0,0.0,0.016829933913983162,0.016829933913983162,0.0,0.0,0.0,0.0,0.0,0.0,10807.629348937127,10807.629348937127,10807.629348937127,10807.629348937127,0,0,0,0,2.2,1.9500000000000002,0,1,,,,,,,,1,,0,0.0,0.0,0.0,0.0,0.0
0.30997371673583984,,0.0,0.0,1.5,,,,0.0,0.0,1.487196742840071,0.0,0.0,0.012803257159929027,0.012803257159929027,,,,,0.0,,0.0,0.0,0.0,0.016720855021860766,0.0,0.0,0.016720855021860766,0.016720855021860766,0.0,0.0,0.0,0.0,0.0,0.0,10807.775456057125,10807.775456057125,10807.775456057125,10807.775456057125,0,0,0,0,2.2,1.9500000000000002,0,1,,,,,,,,1,,0,0.0,0.0,0.0,0.0,0.0
0.31516456604003906,,0.0,0.0,1.5,,,,0.0,0.0,1.4872798050864098,0.0,0.0,0.012720194913590221,0.012720194913590221,,,,,0.0,,0.0,0.0,0.0,0.01661244926775378,0.0,0.0,0.01661244926775378,0.01661244926775378,0.0,0.0,0.0,0.0,0.0,0.0,10807.775456057125,10807.775456057125,10807.775456057125,10807.775456057125,0,0,0,0,2.2,1.9500000000000002,0,1,,,,,,,,1,,0,0.0,0.0,0.0,0.0,0.0
0.3199944496154785,,0.0,0.0,1.5,,,,0.0,0.0,1.4873623289731903,0.0,0.0,0.012637671026809683,0.012637671026809683,,,,,0.0,,0.0,0.0,0.0,0.016504777356106285,0.0,0.0,0.016504777356106285,0.016504777356106285,0.0,0.0,0.0,0.0,0.0,0.0,10807.919683492275,10807.919683492275,10807.919683492275,10807.919683492275,0,0,0,0,2.2,1.9500000000000002,0,1,,,,,,,,1,,0,0.0,0.0,0.0,0.0,0.0
0.3249993324279785,,0.0,0.0,1.5,,,,0.0,0.0,1.4874443178228722,0.0,0.0,0.01255568217712777,0.01255568217712777,,,,,0.0,,0.0,0.0,0.0,0.016397769936364513,0.0,0.0,0.016397769936364513,0.016397769936364513,0.0,0.0,0.0,0.0,0.0,0.0,10807.919683492275,10807.919683492275,10807.919683492275,10807.919683492275,0,0,0,0,2.2,1.9500000000000002,0,1,,,,,,,,1,,0,0.0,0.0,0.0,0.0,0.0
0.3299877643585205,,0.0,0.0,1.5,,,,0.0,0.0,1.487525775257533,0.0,0.0,0.012474224742466955,0.012474224742466955,,,,,0.0,,0.0,0.0,0.0,0.016291486932180237,0.0,0.0,0.016291486932180237,0.016291486932180237,0.0,0.0,0.0,0.0,0.0,0.0,10808.062055237124,10808.062055237124,10808.062055237124,10808.062055237124,0,0,0,0,2.2,1.9500000000000002,0,1,,,,,,,,1,,0,0.0,0.0,0.0,0.0,0.0
0.33518242835998535,,0.0,0.0,1.5,,,,0.0,0.0,1.4876067045569519,0.0,0.0,0.012393295443048125,0.012393295443048125,,,,,0.0,,0.0,0.0,0.0,0.016185859883786517,0.0,0.0,0.016185859883786517,0.016185859883786517,0.0,0.0,0.0,0.0,0.0,0.0,10808.062055237124,10808.062055237124,10808.062055237124,10808.062055237124,0,0,0,0,2.2,1.9500000000000002,0,1,,,,,,,,1,,0,0.0,0.0,0.0,0.0,0.0
0.3399934768676758,,0.0,0.0,1.5,,,,0.0,0.0,1.487687109296672,0.0,0.0,0.012312890703328083,0.012312890703328083,,,,,0.0,,0.0,0.0,0.0,0.01608094794400774,0.0,0.0,0.01608094794400774,0.01608094794400774,0.0,0.0,0.0,0.0,0.0,0.0,10808.202594985512,10808.202594985512,10808.202594985512,10808.202594985512,0,0,0,0,2.2,1.9500000000000002,0,1,,,,,,,,1,,0,0.0,0.0,0.0,0.0,0.0
0.34519243240356445,,0.0,0.0,1.5,,,,0.0,0.0,1.4877669927143347,0.0,0.0,0.012233007285665343,0.012233007285665343,,,,,0.0,,0.0,0.0,0.0,0.01597668353253064,0.0,0.0,0.01597668353253064,0.01597668353253064,0.0,0.0,0.0,0.0,0.0,0.0,10808.202594985512,10808.202594985512,10808.202594985512,10808.202594985512,0,0,0,0,2.2,1.9500000000000002,0,1,,,,,,,,1,,0,0.0,0.0,0.0,0.0,0.0
0.3499875068664551,,0.0,0.0,1.5,,,,0.0,0.0,1.4878463583395407,0.0,0.0,0.012153641660459291,0.012153641660459291,,,,,0.0,,0.0,0.0,0.0,0.015873125041192235,0.0,0.0,0.015873125041192235,0.015873125041192235,0.0,0.0,0.0,0.0,0.0,0.0,10808.341326134203,10808.341326134203,10808.341326134203,10808.341326134203,0,0,0,0,2.2,1.9500000000000002,0,1,,,,,,,,1,,0,0.0,0.0,0.0,0.0,0.0
0.3550601005554199,,0.0,0.0,1.5,,,,0.0,0.0,1.4879252093683304,0.0,0.0,0.012074790631669607,0.012074790631669607,,,,,0.0,,0.0,0.0,0.0,0.015770205757940782,0.0,0.0,0.015770205757940782,0.015770205757940782,0.0,0.0,0.0,0.0,0.0,0.0,10808.341326134203,10808.341326134203,10808.341326134203,10808.341326134203,0,0,0,0,2.2,1.9500000000000002,0,1,,,,,,,,1,,0,0.0,0.0,0.0,0.0,0.0
0.36002659797668457,,0.0,0.0,1.5,,,,0.0,0.0,1.488003549284947,0.0,0.0,0.011996450715052953,0.011996450715052953,,,,,0.0,,0.0,0.0,0.0,0.015667983323342547,0.0,0.0,0.015667983323342547,0.015667983323342547,0.0,0.0,0.0,0.0,0.0,0.0,10808.478271786402,10808.478271786402,10808.478271786402,10808.478271786402,0,0,0,0,2.2,1.9500000000000002,0,1,,,,,,,,1,,0,0.0,0.0,0.0,0.0,0.0
0.36498141288757324,,0.0,0.0,1.5,,,,0.0,0.0,1.4880813812443598,0.0,0.0,0.011918618755640153,0.011918618755640153,,,,,0.0,,0.0,0.0,0.0,0.015566391882554527,0.0,0.0,0.015566391882554527,0.015566391882554527,0.0,0.0,0.0,0.0,0.0,0.0,10808.478271786402,10808.478271786402,10808.478271786402,10808.478271786402,0,0,0,0,2.2,1.9500000000000002,0,1,,,,,,,,1,,0,0.0,0.0,0.0,0.0,0.0
0.36998414993286133,,0.0,0.0,1.5,,,,0.0,0.0,1.4881587086860322,0.0,0.0,0.011841291313967828,0.011841291313967828,,,,,0.0,,0.0,0.0,0.0,0.015465488334466908,0.0,0.0,0.015465488334466908,0.015465488334466908,0.0,0.0,0.0,0.0,0.0,0.0,10808.613454755321,10808.613454755321,10808.613454755321,10808.613454755321,0,0,0,0,2.2,1.9500000000000002,0,1,,,,,,,,1,,0,0.0,0.0,0.0,0.0,0.0
0.3750154972076416,,0.0,0.0,1.5,,,,0.0,0.0,1.4882355347243847,0.0,0.0,0.011764465275615255,0.011764465275615255,,,,,0.0,,0.0,0.0,0.0,0.015365207670530321,0.0,0.0,0.015365207670530321,0.015365207670530321,0.0,0.0,0.0,0.0,0.0,0.0,10808.613454755321,10808.613454755321,10808.613454755321,10808.613454755321,0,0,0,0,2.2,1.9500000000000002,0,1,,,,,,,,1,,0,0.0,0.0,0.0,0.0,0.0
0.37999725341796875,,0.0,0.0,1.5,,,,0.0,0.0,1.4883118627546719,0.0,0.0,0.011688137245328134,0.011688137245328134,,,,,0.0,,0.0,0.0,0.0,0.015265606057433087,0.0,0.0,0.015265606057433087,0.015265606057433087,0.0,0.0,0.0,0.0,0.0,0.0,10808.746897567638,10808.746897567638,10808.746897567638,10808.746897567638,0,0,0,0,2.2,1.9500000000000002,0,1,,,,,,,,1,,0,0.0,0.0,0.0,0.0,0.0
0.38500022888183594,,0.0,0.0,1.5,,,,0.0,0.0,1.4883876958512825,0.0,0.0,0.0116123041487175,0.0116123041487175,,,,,0.0,,0.0,0.0,0.0,0.015166619322140437,0.0,0.0,0.015166619322140437,0.015166619322140437,0.0,0.0,0.0,0.0,0.0,0.0,10808.746897567638,10808.746897567638,10808.746897567638,10808.746897567638,0,0,0,0,2.2,1.9500000000000002,0,1,,,,,,,,1,,0,0.0,0.0,0.0,0.0,0.0
0.3899867534637451,,0.0,0.0,1.5,,,,0.0,0.0,1.488463037365825,0.0,0.0,0.01153696263417503,0.01153696263417503,,,,,0.0,,0.0,0.0,0.0,0.015068302908494076,0.0,0.0,0.015068302908494076,0.015068302908494076,0.0,0.0,0.0,0.0,0.0,0.0,10808.878622466966,10808.878622466966,10808.878622466966,10808.878622466966,0,0,0,0,2.2,1.9500000000000002,0,1,,,,,,,,1,,0,0.0,0.0,0.0,0.0,0.0
0.39499902725219727,,0.0,0.0,1.5,,,,0.0,0.0,1.4885378903331665,0.0,0.0,0.011462109666833475,0.011462109666833475,,,,,0.0,,0.0,0.0,0.0,0.014970593468329279,0.0,0.0,0.014970593468329279,0.014970593468329279,0.0,0.0,0.0,0.0,0.0,0.0,10808.878622466966,10808.878622466966,10808.878622466966,10808.878622466966,0,0,0,0,2.2,1.9500000000000002,0,1,,,,,,,,1,,0,0.0,0.0,0.0,0.0,0.0
0.3999919891357422,,0.0,0.0,1.5,,,,0.0,0.0,1.488612258061826,0.0,0.0,0.011387741938174045,0.011387741938174045,,,,,0.0,,0.0,0.0,0.0,0.014873545731878783,0.0,0.0,0.014873545731878783,0.014873545731878783,0.0,0.0,0.0,0.0,0.0,0.0,10809.008651417254,10809.008651417254,10809.008651417254,10809.008651417254,0,0,0,0,2.2,1.9500000000000002,0,1,,,,,,,,1,,0,0.0,0.0,0.0,0.0,0.0
0.4049842357635498,,0.0,0.0,1.5,,,,0.0,0.0,1.4886861435476526,0.0,0.0,0.011313856452347393,0.011313856452347393,,,,,0.0,,0.0,0.0,0.0,0.014777097165336208,0.0,0.0,0.014777097165336208,0.014777097165336208,0.0,0.0,0.0,0.0,0.0,0.0,10809.008651417254,10809.008651417254,10809.008651417254,10809.008651417254,0,0,0,0,2.2,1.9500000000000002,0,1,,,,,,,,1,,0,0.0,0.0,0.0,0.0,0.0
0.40996217727661133,,0.0,0.0,1.5,,,,0.0,0.0,1.4887595500566249,0.0,0.0,0.011240449943375141,0.011240449943375141,,,,,0.0,,0.0,0.0,0.0,0.014681301794446808,0.0,0.0,0.014681301794446808,0.014681301794446808,0.0,0.0,0.0,0.0,0.0,0.0,10809.137006106166,10809.137006106166,10809.137006106166,10809.137006106166,0,0,0,0,2.2,1.9500000000000002,0,1,,,,,,,,1,,0,0.0,0.0,0.0,0.0,0.0
0.4151608943939209,,0.0,0.0,1.5,,,,0.0,0.0,1.4888324805460718,0.0,0.0,0.011167519453928243,0.011167519453928243,,,,,0.0,,0.0,0.0,0.0,0.014586097889382116,0.0,0.0,0.014586097889382116,0.014586097889382116,0.0,0.0,0.0,0.0,0.0,0.0,10809.137006106166,10809.137006106166,10809.137006106166,10809.137006106166,0,0,0,0,2.2,1.9500000000000002,0,1,,,,,,,,1,,0,0.0,0.0,0.0,0.0,0.0
0.4199943542480469,,0.0,0.0,1.5,,,,0.0,0.0,1.4889049382399737,0.0,0.0,0.011095061760026281,0.011095061760026281,,,,,0.0,,0.0,0.0,0.0,0.014491538780406692,0.0,0.0,0.014491538780406692,0.014491538780406692,0.0,0.0,0.0,0.0,0.0,0.0,10809.263707948423,10809.263707948423,10809.263707948423,10809.263707948423,0,0,0,0,2.2,1.9500000000000002,0,1,,,,,,,,1,,0,0.0,0.0,0.0,0.0,0.0
0.42499399185180664,,0.0,0.0,1.5,,,,0.0,0.0,1.4889769260576309,0.0,0.0,0.011023073942369122,0.011023073942369122,,,,,0.0,,0.0,0.0,0.0,0.014397563531419298,0.0,0.0,0.014397563531419298,0.014397563531419298,0.0,0.0,0.0,0.0,0.0,0.0,10809.263707948423,10809.263707948423,10809.263707948423,10809.263707948423,0,0,0,0,2.2,1.9500000000000002,0,1,,,,,,,,1,,0,0.0,0.0,0.0,0.0,0.0
0.429964542388916,,0.0,0.0,1.5,,,,0.0,0.0,1.4890484471815613,0.0,0.0,0.010951552818438737,0.010951552818438737,,,,,0.0,,0.0,0.0,0.0,0.014304224786097207,0.0,0.0,0.014304224786097207,0.014304224786097207,0.0,0.0,0.0,0.0,0.0,0.0,10809.38877808911,10809.38877808911,10809.38877808911,10809.38877808911,0,0,0,0,2.2,1.9500000000000002,0,1,,,,,,,,1,,0,0.0,0.0,0.0,0.0,0.0
0.434964656829834,,0.0,0.0,1.5,,,,0.0,0.0,1.489119504493521,0.0,0.0,0.01088049550647896,0.01088049550647896,,,,,0.0,,0.0,0.0,0.0,0.014211462391943916,0.0,0.0,0.014211462391943916,0.014211462391943916,0.0,0.0,0.0,0.0,0.0,0.0,10809.38877808911,10809.38877808911,10809.38877808911,10809.38877808911,0,0,0,0,2.2,1.9500000000000002,0,1,,,,,,,,1,,0,0.0,0.0,0.0,0.0,0.0
0.4399838447570801,,0.0,0.0,1.5,,,,0.0,0.0,1.4891901011350952,0.0,0.0,0.010809898864904799,0.010809898864904799,,,,,0.0,,0.0,0.0,0.0,0.014119328314830851,0.0,0.0,0.014119328314830851,0.014119328314830851,0.0,0.0,0.0,0.0,0.0,0.0,10809.512237406929,10809.512237406929,10809.512237406929,10809.512237406929,0,0,0,0,2.2,1.9500000000000002,0,1,,,,,,,,1,,0,0.0,0.0,0.0,0.0,0.0
0.4451618194580078,,0.0,0.0,1.5,,,,0.0,0.0,1.4892602399509745,0.0,0.0,0.010739760049025548,0.010739760049025548,,,,,0.0,,0.0,0.0,0.0,0.014027763175870386,0.0,0.0,0.014027763175870386,0.014027763175870386,0.0,0.0,0.0,0.0,0.0,0.0,10809.512237406929,10809.512237406929,10809.512237406929,10809.512237406929,0,0,0,0,2.2,1.9500000000000002,0,1,,,,,,,,1,,0,0.0,0.0,0.0,0.0,0.0
0.449962854385376,,0.0,0.0,1.5,,,,0.0,0.0,1.4893299240423334,0.0,0.0,0.010670075957666558,0.010670075957666558,,,,,0.0,,0.0,0.0,0.0,0.013936818271798863,0.0,0.0,0.013936818271798863,0.013936818271798863,0.0,0.0,0.0,0.0,0.0,0.0,10809.634106517438,10809.634106517438,10809.634106517438,10809.634106517438,0,0,0,0,2.2,1.9500000000000002,0,1,,,,,,,,1,,0,0.0,0.0,0.0,0.0,0.0
0.45496225357055664,,0.0,0.0,1.5,,,,0.0,0.0,1.4893991562172708,0.0,0.0,0.010600843782729186,0.010600843782729186,,,,,0.0,,0.0,0.0,0.0,0.013846434987466844,0.0,0.0,0.013846434987466844,0.013846434987466844,0.0,0.0,0.0,0.0,0.0,0.0,10809.634106517438,10809.634106517438,10809.634106517438,10809.634106517438,0,0,0,0,2.2,1.9500000000000002,0,1,,,,,,,,1,,0,0.0,0.0,0.0,0.0,0.0
0.4600250720977783,,0.0,0.0,1.5,,,,0.0,0.0,1.489467939537066,0.0,0.0,0.010532060462933979,0.010532060462933979,,,,,0.0,,0.0,0.0,0.0,0.013756663959037149,0.0,0.0,0.013756663959037149,0.013756663959037149,0.0,0.0,0.0,0.0,0.0,0.0,10809.754405776268,10809.754405776268,10809.754405776268,10809.754405776268,0,0,0,0,2.2,1.9500000000000002,0,1,,,,,,,,1,,0,0.0,0.0,0.0,0.0,0.0
0.46517157554626465,,0.0,0.0,1.5,,,,0.0,0.0,1.4895362767736928,0.0,0.0,0.010463723226307176,0.010463723226307176,,,,,0.0,,0.0,0.0,0.0,0.013667447325351452,0.0,0.0,0.013667447325351452,0.013667447325351452,0.0,0.0,0.0,0.0,0.0,0.0,10809.754405776268,10809.754405776268,10809.754405776268,10809.754405776268,0,0,0,0,2.2,1.9500000000000002,0,1,,,,,,,,1,,0,0.0,0.0,0.0,0.0,0.0
0.4699585437774658,,0.0,0.0,1.5,,,,0.0,0.0,1.489604170949045,0.0,0.0,0.01039582905095493,0.01039582905095493,,,,,0.0,,0.0,0.0,0.0,0.013578835070452575,0.0,0.0,0.013578835070452575,0.013578835070452575,0.0,0.0,0.0,0.0,0.0,0.0,10809.873155282241,10809.873155282241,10809.873155282241,10809.873155282241,0,0,0,0,2.2,1.9500000000000002,0,1,,,,,,,,1,,0,0.0,0.0,0.0,0.0,0.0
0.4750850200653076,,0.0,0.0,1.5,,,,0.0,0.0,1.4896716247994328,0.0,0.0,0.010328375200567175,0.010328375200567175,,,,,0.0,,0.0,0.0,0.0,0.013490770077548451,0.0,0.0,0.013490770077548451,0.013490770077548451,0.0,0.0,0.0,0.0,0.0,0.0,10809.873155282241,10809.873155282241,10809.873155282241,10809.873155282241,0,0,0,0,2.2,1.9500000000000002,0,1,,,,,,,,1,,0,0.0,0.0,0.0,0.0,0.0
0.4799613952636719,,0.0,0.0,1.5,,,,0.0,0.0,1.4897386413078673,0.0,0.0,0.010261358692132738,0.010261358692132738,,,,,0.0,,0.0,0.0,0.0,0.01340330168690887,0.0,0.0,0.01340330168690887,0.01340330168690887,0.0,0.0,0.0,0.0,0.0,0.0,10809.990374880537,10809.990374880537,10809.990374880537,10809.990374880537,0,0,0,0,2.2,1.9500000000000002,0,1,,,,,,,,1,,0,0.0,0.0,0.0,0.0,0.0
0.48496341705322266,,0.0,0.0,1.5,,,,0.0,0.0,1.4898052231754504,0.0,0.0,0.010194776824549612,0.010194776824549612,,,,,0.0,,0.0,0.0,0.0,0.01331637351660378,0.0,0.0,0.01331637351660378,0.01331637351660378,0.0,0.0,0.0,0.0,0.0,0.0,10809.990374880537,10809.990374880537,10809.990374880537,10809.990374880537,0,0,0,0,2.2,1.9500000000000002,0,1,,,,,,,,1,,0,0.0,0.0,0.0,0.0,0.0
0.4899888038635254,,0.0,0.0,1.5,,,,0.0,0.0,1.4898713733468072,0.0,0.0,0.010128626653192807,0.010128626653192807,,,,,0.0,,0.0,0.0,0.0,0.01323003427137155,0.0,0.0,0.01323003427137155,0.01323003427137155,0.0,0.0,0.0,0.0,0.0,0.0,10810.106084165764,10810.106084165764,10810.106084165764,10810.106084165764,0,0,0,0,2.2,1.9500000000000002,0,1,,,,,,,,1,,0,0.0,0.0,0.0,0.0,0.0
0.4950897693634033,,0.0,0.0,1.5,,,,0.0,0.0,1.489937094488281,0.0,0.0,0.010062905511718956,0.010062905511718956,,,,,0.0,,0.0,0.0,0.0,0.013144228294759214,0.0,0.0,0.013144228294759214,0.013144228294759214,0.0,0.0,0.0,0.0,0.0,0.0,10810.106084165764,10810.106084165764,10810.106084165764,10810.106084165764,0,0,0,0,2.2,1.9500000000000002,0,1,,,,,,,,1,,0,0.0,0.0,0.0,0.0,0.0
0.4999878406524658,,0.0,0.0,1.5,,,,0.0,0.0,1.4900023895066017,0.0,0.0,0.009997610493398312,0.009997610493398312,,,,,0.0,,0.0,0.0,0.0,0.01305900366411125,0.0,0.0,0.01305900366411125,0.01305900366411125,0.0,0.0,0.0,0.0,0.0,0.0,10810.220302485019,10810.220302485019,10810.220302485019,10810.220302485019,0,0,0,0,2.2,1.9500000000000002,0,1,,,,,,,,1,,0,0.0,0.0,0.0,0.0,0.0
0.504986047744751,,0.0,0.0,1.5,,,,0.0,0.0,1.4900672610337977,0.0,0.0,0.009932738966202281,0.009932738966202281,,,,,0.0,,0.0,0.0,0.0,0.012974305439184654,0.0,0.0,0.012974305439184654,0.012974305439184654,0.0,0.0,0.0,0.0,0.0,0.0,10810.220302485019,10810.220302485019,10810.220302485019,10810.220302485019,0,0,0,0,2.2,1.9500000000000002,0,1,,,,,,,,1,,0,0.0,0.0,0.0,0.0,0.0
0.509974479675293,,0.0,0.0,1.5,,,,0.0,0.0,1.4901317119391875,0.0,0.0,0.009868288060812525,0.009868288060812525,,,,,0.0,,0.0,0.0,0.0,0.012890181077964809,0.0,0.0,0.012890181077964809,0.012890181077964809,0.0,0.0,0.0,0.0,0.0,0.0,10810.333048940918,10810.333048940918,10810.333048940918,10810.333048940918,0,0,0,0,2.2,1.9500000000000002,0,1,,,,,,,,1,,0,0.0,0.0,0.0,0.0,0.0
0.5149745941162109,,0.0,0.0,1.5,,,,0.0,0.0,1.4901957448209238,0.0,0.0,0.009804255179076238,0.009804255179076238,,,,,0.0,,0.0,0.0,0.0,0.012806576347267885,0.0,0.0,0.012806576347267885,0.012806576347267885,0.0,0.0,0.0,0.0,0.0,0.0,10810.333048940918,10810.333048940918,10810.333048940918,10810.333048940918,0,0,0,0,2.2,1.9500000000000002,0,1,,,,,,,,1,,0,0.0,0.0,0.0,0.0,0.0
0.5199992656707764,,0.0,0.0,1.5,,,,0.0,0.0,1.490259362511392,0.0,0.0,0.009740637488607984,0.009740637488607984,,,,,0.0,,0.0,0.0,0.0,0.012723538093653402,0.0,0.0,0.012723538093653402,0.012723538093653402,0.0,0.0,0.0,0.0,0.0,0.0,10810.44434239457,10810.44434239457,10810.44434239457,10810.44434239457,0,0,0,0,2.2,1.9500000000000002,0,1,,,,,,,,1,,0,0.0,0.0,0.0,0.0,0.0
0.5250136852264404,,0.0,0.0,1.5,,,,0.0,0.0,1.4903225675753018,0.0,0.0,0.009677432424698207,0.009677432424698207,,,,,0.0,,0.0,0.0,0.0,0.012641012781961022,0.0,0.0,0.012641012781961022,0.012641012781961022,0.0,0.0,0.0,0.0,0.0,0.0,10810.44434239457,10810.44434239457,10810.44434239457,10810.44434239457,0,0,0,0,2.2,1.9500000000000002,0,1,,,,,,,,1,,0,0.0,0.0,0.0,0.0,0.0
0.5299832820892334,,0.0,0.0,1.5,,,,0.0,0.0,1.4903853628085775,0.0,0.0,0.009614637191422526,0.009614637191422526,,,,,0.0,,0.0,0.0,0.0,0.012559046655157363,0.0,0.0,0.012559046655157363,0.012559046655157363,0.0,0.0,0.0,0.0,0.0,0.0,10810.554201468552,10810.554201468552,10810.554201468552,10810.554201468552,0,0,0,0,2.2,1.9500000000000002,0,1,,,,,,,,1,,0,0.0,0.0,0.0,0.0,0.0
0.5351758003234863,,0.0,0.0,1.5,,,,0.0,0.0,1.4904477507429135,0.0,0.0,0.009552249257086531,0.009552249257086531,,,,,0.0,,0.0,0.0,0.0,0.012477586867183423,0.0,0.0,0.012477586867183423,0.012477586867183423,0.0,0.0,0.0,0.0,0.0,0.0,10810.554201468552,10810.554201468552,10810.554201468552,10810.554201468552,0,0,0,0,2.2,1.9500000000000002,0,1,,,,,,,,1,,0,0.0,0.0,0.0,0.0,0.0
0.5399718284606934,,0.0,0.0,1.5,,,,0.0,0.0,1.4905097341382392,0.0,0.0,0.009490265861760827,0.009490265861760827,,,,,0.0,,0.0,0.0,0.0,0.012396679065146814,0.0,0.0,0.012396679065146814,0.012396679065146814,0.0,0.0,0.0,0.0,0.0,0.0,10810.662644549815,10810.662644549815,10810.662644549815,10810.662644549815,0,0,0,0,2.2,1.9500000000000002,0,1,,,,,,,,1,,0,0.0,0.0,0.0,0.0,0.0
0.5450348854064941,,0.0,0.0,1.5,,,,0.0,0.0,1.4905713154936555,0.0,0.0,0.009428684506344487,0.009428684506344487,,,,,0.0,,0.0,0.0,0.0,0.01231627108327992,0.0,0.0,0.01231627108327992,0.01231627108327992,0.0,0.0,0.0,0.0,0.0,0.0,10810.662644549815,10810.662644549815,10810.662644549815,10810.662644549815,0,0,0,0,2.2,1.9500000000000002,0,1,,,,,,,,1,,0,0.0,0.0,0.0,0.0,0.0
0.5499799251556396,,0.0,0.0,1.5,,,,0.0,0.0,1.4906324975335579,0.0,0.0,0.009367502466442135,0.009367502466442135,,,,,0.0,,0.0,0.0,0.0,0.012236407980467488,0.0,0.0,0.012236407980467488,0.012236407980467488,0.0,0.0,0.0,0.0,0.0,0.0,10810.769689792589,10810.769689792589,10810.769689792589,10810.769689792589,0,0,0,0,2.2,1.9500000000000002,0,1,,,,,,,,1,,0,0.0,0.0,0.0,0.0,0.0
0.5551605224609375,,0.0,0.0,1.5,,,,0.0,0.0,1.4906932827248704,0.0,0.0,0.00930671727512955,0.00930671727512955,,,,,0.0,,0.0,0.0,0.0,0.012157038262534284,0.0,0.0,0.012157038262534284,0.012157038262534284,0.0,0.0,0.0,0.0,0.0,0.0,10810.769689792589,10810.769689792589,10810.769689792589,10810.769689792589,0,0,0,0,2.2,1.9500000000000002,0,1,,,,,,,,1,,0,0.0,0.0,0.0,0.0,0.0
0.5600502490997314,,0.0,0.0,1.5,,,,0.0,0.0,1.490753673756909,0.0,0.0,0.009246326243091074,0.009246326243091074,,,,,0.0,,0.0,0.0,0.0,0.012078206407681546,0.0,0.0,0.012078206407681546,0.012078206407681546,0.0,0.0,0.0,0.0,0.0,0.0,10810.875355121223,10810.875355121223,10810.875355121223,10810.875355121223,0,0,0,0,2.2,1.9500000000000002,0,1,,,,,,,,1,,0,0.0,0.0,0.0,0.0,0.0
0.5651857852935791,,0.0,0.0,1.5,,,,0.0,0.0,1.4908136730648327,0.0,0.0,0.0091863269351673,0.0091863269351673,,,,,0.0,,0.0,0.0,0.0,0.011999861584736916,0.0,0.0,0.011999861584736916,0.011999861584736916,0.0,0.0,0.0,0.0,0.0,0.0,10810.875355121223,10810.875355121223,10810.875355121223,10810.875355121223,0,0,0,0,2.2,1.9500000000000002,0,1,,,,,,,,1,,0,0.0,0.0,0.0,0.0,0.0
0.5699923038482666,,0.0,0.0,1.5,,,,0.0,0.0,1.490873283303326,0.0,0.0,0.009126716696673975,0.009126716696673975,,,,,0.0,,0.0,0.0,0.0,0.011922047698662142,0.0,0.0,0.011922047698662142,0.011922047698662142,0.0,0.0,0.0,0.0,0.0,0.0,10810.979658233025,10810.979658233025,10810.979658233025,10810.979658233025,0,0,0,0,2.2,1.9500000000000002,0,1,,,,,,,,1,,0,0.0,0.0,0.0,0.0,0.0
0.575023889541626,,0.0,0.0,1.5,,,,0.0,0.0,1.49093250687619,0.0,0.0,0.009067493123809944,0.009067493123809944,,,,,0.0,,0.0,0.0,0.0,0.011844714572806444,0.0,0.0,0.011844714572806444,0.011844714572806444,0.0,0.0,0.0,0.0,0.0,0.0,10810.979658233025,10810.979658233025,10810.979658233025,10810.979658233025,0,0,0,0,2.2,1.9500000000000002,0,1,,,,,,,,1,,0,0.0,0.0,0.0,0.0,0.0
0.5799834728240967,,0.0,0.0,1.5,,,,0.0,0.0,1.4909913464039213,0.0,0.0,0.00900865359607872,0.00900865359607872,,,,,0.0,,0.0,0.0,0.0,0.01176790554624176,0.0,0.0,0.01176790554624176,0.01176790554624176,0.0,0.0,0.0,0.0,0.0,0.0,10811.082616601043,10811.082616601043,10811.082616601043,10811.082616601043,0,0,0,0,2.2,1.9500000000000002,0,1,,,,,,,,1,,0,0.0,0.0,0.0,0.0,0.0
0.5851702690124512,,0.0,0.0,1.5,,,,0.0,0.0,1.4910498042593636,0.0,0.0,0.00895019574063638,0.00895019574063638,,,,,0.0,,0.0,0.0,0.0,0.011691571088464456,0.0,0.0,0.011691571088464456,0.011691571088464456,0.0,0.0,0.0,0.0,0.0,0.0,10811.082616601043,10811.082616601043,10811.082616601043,10811.082616601043,0,0,0,0,2.2,1.9500000000000002,0,1,,,,,,,,1,,0,0.0,0.0,0.0,0.0,0.0
0.5899646282196045,,0.0,0.0,1.5,,,,0.0,0.0,1.4911078830292632,0.0,0.0,0.008892116970736774,0.008892116970736774,,,,,0.0,,0.0,0.0,0.0,0.011615753979913303,0.0,0.0,0.011615753979913303,0.011615753979913303,0.0,0.0,0.0,0.0,0.0,0.0,10811.184247476835,10811.184247476835,10811.184247476835,10811.184247476835,0,0,0,0,2.2,1.9500000000000002,0,1,,,,,,,,1,,0,0.0,0.0,0.0,0.0,0.0
0.5951292514801025,,0.0,0.0,1.5,,,,0.0,0.0,1.4911655850559031,0.0,0.0,0.008834414944096869,0.008834414944096869,,,,,0.0,,0.0,0.0,0.0,0.01154040532796294,0.0,0.0,0.01154040532796294,0.01154040532796294,0.0,0.0,0.0,0.0,0.0,0.0,10811.184247476835,10811.184247476835,10811.184247476835,10811.184247476835,0,0,0,0,2.2,1.9500000000000002,0,1,,,,,,,,1,,0,0.0,0.0,0.0,0.0,0.0
0.5999643802642822,,0.0,0.0,1.5,,,,0.0,0.0,1.491222912892711,0.0,0.0,0.008777087107288972,0.008777087107288972,,,,,0.0,,0.0,0.0,0.0,0.011465567361583582,0.0,0.0,0.011465567361583582,0.011465567361583582,0.0,0.0,0.0,0.0,0.0,0.0,10811.284567893192,10811.284567893192,10811.284567893192,10811.284567893192,0,0,0,0,2.2,1.9500000000000002,0,1,,,,,,,,1,,0,0.0,0.0,0.0,0.0,0.0
0.604987382888794,,0.0,0.0,1.5,,,,0.0,0.0,1.4912798688518003,0.0,0.0,0.008720131148199695,0.008720131148199695,,,,,0.0,,0.0,0.0,0.0,0.011391191817863624,0.0,0.0,0.011391191817863624,0.011391191817863624,0.0,0.0,0.0,0.0,0.0,0.0,10811.284567893192,10811.284567893192,10811.284567893192,10811.284567893192,0,0,0,0,2.2,1.9500000000000002,0,1,,,,,,,,1,,0,0.0,0.0,0.0,0.0,0.0
0.6099934577941895,,0.0,0.0,1.5,,,,0.0,0.0,1.4913364554537072,0.0,0.0,0.008663544546292812,0.008663544546292812,,,,,0.0,,0.0,0.0,0.0,0.011317320381378502,0.0,0.0,0.011317320381378502,0.011317320381378502,0.0,0.0,0.0,0.0,0.0,0.0,10811.383594666833,10811.383594666833,10811.383594666833,10811.383594666833,0,0,0,0,2.2,1.9500000000000002,0,1,,,,,,,,1,,0,0.0,0.0,0.0,0.0,0.0
0.6150124073028564,,0.0,0.0,1.5,,,,0.0,0.0,1.4913926749807616,0.0,0.0,0.008607325019238443,0.008607325019238443,,,,,0.0,,0.0,0.0,0.0,0.011243905410868886,0.0,0.0,0.011243905410868886,0.011243905410868886,0.0,0.0,0.0,0.0,0.0,0.0,10811.383594666833,10811.383594666833,10811.383594666833,10811.383594666833,0,0,0,0,2.2,1.9500000000000002,0,1,,,,,,,,1,,0,0.0,0.0,0.0,0.0,0.0
0.6199872493743896,,0.0,0.0,1.5,,,,0.0,0.0,1.4914485299210292,0.0,0.0,0.008551470078970835,0.008551470078970835,,,,,0.0,,0.0,0.0,0.0,0.011170988053499501,0.0,0.0,0.011170988053499501,0.011170988053499501,0.0,0.0,0.0,0.0,0.0,0.0,10811.481344401085,10811.481344401085,10811.481344401085,10811.481344401085,0,0,0,0,2.2,1.9500000000000002,0,1,,,,,,,,1,,0,0.0,0.0,0.0,0.0,0.0
0.625053882598877,,0.0,0.0,1.5,,,,0.0,0.0,1.4915040225274376,0.0,0.0,0.008495977472562366,0.008495977472562366,,,,,0.0,,0.0,0.0,0.0,0.011098521281703539,0.0,0.0,0.011098521281703539,0.011098521281703539,0.0,0.0,0.0,0.0,0.0,0.0,10811.481344401085,10811.481344401085,10811.481344401085,10811.481344401085,0,0,0,0,2.2,1.9500000000000002,0,1,,,,,,,,1,,0,0.0,0.0,0.0,0.0,0.0
0.6299786567687988,,0.0,0.0,1.5,,,,0.0,0.0,1.4915591552559984,0.0,0.0,0.008440844744001641,0.008440844744001641,,,,,0.0,,0.0,0.0,0.0,0.011026545712130456,0.0,0.0,0.011026545712130456,0.011026545712130456,0.0,0.0,0.0,0.0,0.0,0.0,10811.577833488509,10811.577833488509,10811.577833488509,10811.577833488509,0,0,0,0,2.2,1.9500000000000002,0,1,,,,,,,,1,,0,0.0,0.0,0.0,0.0,0.0
0.6351902484893799,,0.0,0.0,1.5,,,,0.0,0.0,1.4916139303306135,0.0,0.0,0.008386069669386487,0.008386069669386487,,,,,0.0,,0.0,0.0,0.0,0.010955014923046806,0.0,0.0,0.010955014923046806,0.010955014923046806,0.0,0.0,0.0,0.0,0.0,0.0,10811.577833488509,10811.577833488509,10811.577833488509,10811.577833488509,0,0,0,0,2.2,1.9500000000000002,0,1,,,,,,,,1,,0,0.0,0.0,0.0,0.0,0.0
0.6400296688079834,,0.0,0.0,1.5,,,,0.0,0.0,1.4916683501756505,0.0,0.0,0.00833164982434953,0.00833164982434953,,,,,0.0,,0.0,0.0,0.0,0.01088396900739474,0.0,0.0,0.01088396900739474,0.01088396900739474,0.0,0.0,0.0,0.0,0.0,0.0,10811.673078113503,10811.673078113503,10811.673078113503,10811.673078113503,0,0,0,0,2.2,1.9500000000000002,0,1,,,,,,,,1,,0,0.0,0.0,0.0,0.0,0.0
0.6449716091156006,,0.0,0.0,1.5,,,,0.0,0.0,1.491722416986358,0.0,0.0,0.008277583013641898,0.008277583013641898,,,,,0.0,,0.0,0.0,0.0,0.010813362141514217,0.0,0.0,0.010813362141514217,0.010813362141514217,0.0,0.0,0.0,0.0,0.0,0.0,10811.673078113503,10811.673078113503,10811.673078113503,10811.673078113503,0,0,0,0,2.2,1.9500000000000002,0,1,,,,,,,,1,,0,0.0,0.0,0.0,0.0,0.0
0.6499614715576172,,0.0,0.0,1.5,,,,0.0,0.0,1.491776133155865,0.0,0.0,0.008223866844135008,0.008223866844135008,,,,,0.0,,0.0,0.0,0.0,0.010743233901361626,0.0,0.0,0.010743233901361626,0.010743233901361626,0.0,0.0,0.0,0.0,0.0,0.0,10811.767094254878,10811.767094254878,10811.767094254878,10811.767094254878,0,0,0,0,2.2,1.9500000000000002,0,1,,,,,,,,1,,0,0.0,0.0,0.0,0.0,0.0
0.6550853252410889,,0.0,0.0,1.5,,,,0.0,0.0,1.4918295008511335,0.0,0.0,0.008170499148866472,0.008170499148866472,,,,,0.0,,0.0,0.0,0.0,0.010673539053688548,0.0,0.0,0.010673539053688548,0.010673539053688548,0.0,0.0,0.0,0.0,0.0,0.0,10811.767094254878,10811.767094254878,10811.767094254878,10811.767094254878,0,0,0,0,2.2,1.9500000000000002,0,1,,,,,,,,1,,0,0.0,0.0,0.0,0.0,0.0
0.659954309463501,,0.0,0.0,1.5,,,,0.0,0.0,1.491882522434454,0.0,0.0,0.008117477565545927,0.008117477565545927,,,,,0.0,,0.0,0.0,0.0,0.010604316664101767,0.0,0.0,0.010604316664101767,0.010604316664101767,0.0,0.0,0.0,0.0,0.0,0.0,10811.859897688424,10811.859897688424,10811.859897688424,10811.859897688424,0,0,0,0,2.2,1.9500000000000002,0,1,,,,,,,,1,,0,0.0,0.0,0.0,0.0,0.0
0.6649553775787354,,0.0,0.0,1.5,,,,0.0,0.0,1.4919352000448651,0.0,0.0,0.008064799955134871,0.008064799955134871,,,,,0.0,,0.0,0.0,0.0,0.010535522082199553,0.0,0.0,0.010535522082199553,0.010535522082199553,0.0,0.0,0.0,0.0,0.0,0.0,10811.859897688424,10811.859897688424,10811.859897688424,10811.859897688424,0,0,0,0,2.2,1.9500000000000002,0,1,,,,,,,,1,,0,0.0,0.0,0.0,0.0,0.0
0.6699557304382324,,0.0,0.0,1.5,,,,0.0,0.0,1.491987536014214,0.0,0.0,0.008012463985785923,0.008012463985785923,,,,,0.0,,0.0,0.0,0.0,0.010467193869790914,0.0,0.0,0.010467193869790914,0.010467193869790914,0.0,0.0,0.0,0.0,0.0,0.0,10811.951503989394,10811.951503989394,10811.951503989394,10811.951503989394,0,0,0,0,2.2,1.9500000000000002,0,1,,,,,,,,1,,0,0.0,0.0,0.0,0.0,0.0
0.6749618053436279,,0.0,0.0,1.5,,,,0.0,0.0,1.4920395324539732,0.0,0.0,0.00796046754602675,0.00796046754602675,,,,,0.0,,0.0,0.0,0.0,0.010399287951851579,0.0,0.0,0.010399287951851579,0.010399287951851579,0.0,0.0,0.0,0.0,0.0,0.0,10811.951503989394,10811.951503989394,10811.951503989394,10811.951503989394,0,0,0,0,2.2,1.9500000000000002,0,1,,,,,,,,1,,0,0.0,0.0,0.0,0.0,0.0
0.679987907409668,,0.0,0.0,1.5,,,,0.0,0.0,1.4920911916659376,0.0,0.0,0.007908808334062378,0.007908808334062378,,,,,0.0,,0.0,0.0,0.0,0.010331842392861418,0.0,0.0,0.010331842392861418,0.010331842392861418,0.0,0.0,0.0,0.0,0.0,0.0,10812.041928535018,10812.041928535018,10812.041928535018,10812.041928535018,0,0,0,0,2.2,1.9500000000000002,0,1,,,,,,,,1,,0,0.0,0.0,0.0,0.0,0.0
0.6851508617401123,,0.0,0.0,1.5,,,,0.0,0.0,1.4921425157343666,0.0,0.0,0.007857484265633374,0.007857484265633374,,,,,0.0,,0.0,0.0,0.0,0.010264813685798919,0.0,0.0,0.010264813685798919,0.010264813685798919,0.0,0.0,0.0,0.0,0.0,0.0,10812.041928535018,10812.041928535018,10812.041928535018,10812.041928535018,0,0,0,0,2.2,1.9500000000000002,0,1,,,,,,,,1,,0,0.0,0.0,0.0,0.0,0.0
0.6900403499603271,,0.0,0.0,1.5,,,,0.0,0.0,1.4921935069313876,0.0,0.0,0.0078064930686123635,0.0078064930686123635,,,,,0.0,,0.0,0.0,0.0,0.010198239404201143,0.0,0.0,0.010198239404201143,0.010198239404201143,0.0,0.0,0.0,0.0,0.0,0.0,10812.131186506946,10812.131186506946,10812.131186506946,10812.131186506946,0,0,0,0,2.2,1.9500000000000002,0,1,,,,,,,,1,,0,0.0,0.0,0.0,0.0,0.0
0.6949777603149414,,0.0,0.0,1.5,,,,0.0,0.0,1.4922441673143965,0.0,0.0,0.0077558326856035364,0.0077558326856035364,,,,,0.0,,0.0,0.0,0.0,0.010132076601767976,0.0,0.0,0.010132076601767976,0.010132076601767976,0.0,0.0,0.0,0.0,0.0,0.0,10812.131186506946,10812.131186506946,10812.131186506946,10812.131186506946,0,0,0,0,2.2,1.9500000000000002,0,1,,,,,,,,1,,0,0.0,0.0,0.0,0.0,0.0
0.6999852657318115,,0.0,0.0,1.5,,,,0.0,0.0,1.4922944991262335,0.0,0.0,0.007705500873766535,0.007705500873766535,,,,,0.0,,0.0,0.0,0.0,0.010066362367398888,0.0,0.0,0.010066362367398888,0.010066362367398888,0.0,0.0,0.0,0.0,0.0,0.0,10812.219292893682,10812.219292893682,10812.219292893682,10812.219292893682,0,0,0,0,2.2,1.9500000000000002,0,1,,,,,,,,1,,0,0.0,0.0,0.0,0.0,0.0
0.7051124572753906,,0.0,0.0,1.5,,,,0.0,0.0,1.492344504397775,0.0,0.0,0.007655495602225004,0.007655495602225004,,,,,0.0,,0.0,0.0,0.0,0.010001054308326042,0.0,0.0,0.010001054308326042,0.010001054308326042,0.0,0.0,0.0,0.0,0.0,0.0,10812.219292893682,10812.219292893682,10812.219292893682,10812.219292893682,0,0,0,0,2.2,1.9500000000000002,0,1,,,,,,,,1,,0,0.0,0.0,0.0,0.0,0.0
0.7100515365600586,,0.0,0.0,1.5,,,,0.0,0.0,1.49239418534295,0.0,0.0,0.007605814657049903,0.007605814657049903,,,,,0.0,,0.0,0.0,0.0,0.009936189035036284,0.0,0.0,0.009936189035036284,0.009936189035036284,0.0,0.0,0.0,0.0,0.0,0.0,10812.306262492984,10812.306262492984,10812.306262492984,10812.306262492984,0,0,0,0,2.2,1.9500000000000002,0,1,,,,,,,,1,,0,0.0,0.0,0.0,0.0,0.0
0.7151553630828857,,0.0,0.0,1.5,,,,0.0,0.0,1.492443543966456,0.0,0.0,0.007556456033543935,0.007556456033543935,,,,,0.0,,0.0,0.0,0.0,0.009871724701195963,0.0,0.0,0.009871724701195963,0.009871724701195963,0.0,0.0,0.0,0.0,0.0,0.0,10812.306262492984,10812.306262492984,10812.306262492984,10812.306262492984,0,0,0,0,2.2,1.9500000000000002,0,1,,,,,,,,1,,0,0.0,0.0,0.0,0.0,0.0
0.7199819087982178,,0.0,0.0,1.5,,,,0.0,0.0,1.4924925824536812,0.0,0.0,0.007507417546318784,0.007507417546318784,,,,,0.0,,0.0,0.0,0.0,0.00980769744502512,0.0,0.0,0.00980769744502512,0.00980769744502512,0.0,0.0,0.0,0.0,0.0,0.0,10812.392109914244,10812.392109914244,10812.392109914244,10812.392109914244,0,0,0,0,2.2,1.9500000000000002,0,1,,,,,,,,1,,0,0.0,0.0,0.0,0.0,0.0
0.7249839305877686,,0.0,0.0,1.5,,,,0.0,0.0,1.4925413027834793,0.0,0.0,0.007458697216520704,0.007458697216520704,,,,,0.0,,0.0,0.0,0.0,0.009744065959616209,0.0,0.0,0.009744065959616209,0.009744065959616209,0.0,0.0,0.0,0.0,0.0,0.0,10812.392109914244,10812.392109914244,10812.392109914244,10812.392109914244,0,0,0,0,2.2,1.9500000000000002,0,1,,,,,,,,1,,0,0.0,0.0,0.0,0.0,0.0
0.7299857139587402,,0.0,0.0,1.5,,,,0.0,0.0,1.4925897071130643,0.0,0.0,0.007410292886935732,0.007410292886935732,,,,,0.0,,0.0,0.0,0.0,0.00968086591698998,0.0,0.0,0.00968086591698998,0.00968086591698998,0.0,0.0,0.0,0.0,0.0,0.0,10812.47684958082,10812.47684958082,10812.47684958082,10812.47684958082,0,0,0,0,2.2,1.9500000000000002,0,1,,,,,,,,1,,0,0.0,0.0,0.0,0.0,0.0
0.7351272106170654,,0.0,0.0,1.5,,,,0.0,0.0,1.492637797395778,0.0,0.0,0.007362202604221935,0.007362202604221935,,,,,0.0,,0.0,0.0,0.0,0.00961805654274577,0.0,0.0,0.00961805654274577,0.00961805654274577,0.0,0.0,0.0,0.0,0.0,0.0,10812.47684958082,10812.47684958082,10812.47684958082,10812.47684958082,0,0,0,0,2.2,1.9500000000000002,0,1,,,,,,,,1,,0,0.0,0.0,0.0,0.0,0.0
0.739987850189209,,0.0,0.0,1.5,,,,0.0,0.0,1.4926855757610216,0.0,0.0,0.007314424238978434,0.007314424238978434,,,,,0.0,,0.0,0.0,0.0,0.009555673048695408,0.0,0.0,0.009555673048695408,0.009555673048695408,0.0,0.0,0.0,0.0,0.0,0.0,10812.560495732361,10812.560495732361,10812.560495732361,10812.560495732361,0,0,0,0,2.2,1.9500000000000002,0,1,,,,,,,,1,,0,0.0,0.0,0.0,0.0,0.0
0.7451841831207275,,0.0,0.0,1.5,,,,0.0,0.0,1.4927330441369522,0.0,0.0,0.007266955863047819,0.007266955863047819,,,,,0.0,,0.0,0.0,0.0,0.009493675186113573,0.0,0.0,0.009493675186113573,0.009493675186113573,0.0,0.0,0.0,0.0,0.0,0.0,10812.560495732361,10812.560495732361,10812.560495732361,10812.560495732361,0,0,0,0,2.2,1.9500000000000002,0,1,,,,,,,,1,,0,0.0,0.0,0.0,0.0,0.0
0.7499854564666748,,0.0,0.0,1.5,,,,0.0,0.0,1.4927802046255148,0.0,0.0,0.0072197953744852494,0.0072197953744852494,,,,,0.0,,0.0,0.0,0.0,0.009432097712517209,0.0,0.0,0.009432097712517209,0.009432097712517209,0.0,0.0,0.0,0.0,0.0,0.0,10812.643062427098,10812.643062427098,10812.643062427098,10812.643062427098,0,0,0,0,2.2,1.9500000000000002,0,1,,,,,,,,1,,0,0.0,0.0,0.0,0.0,0.0
0.7549753189086914,,0.0,0.0,1.5,,,,0.0,0.0,1.4928270591300052,0.0,0.0,0.0071729408699947594,0.0071729408699947594,,,,,0.0,,0.0,0.0,0.0,0.009370900898111547,0.0,0.0,0.009370900898111547,0.009370900898111547,0.0,0.0,0.0,0.0,0.0,0.0,10812.643062427098,10812.643062427098,10812.643062427098,10812.643062427098,0,0,0,0,2.2,1.9500000000000002,0,1,,,,,,,,1,,0,0.0,0.0,0.0,0.0,0.0
0.7600204944610596,,0.0,0.0,1.5,,,,0.0,0.0,1.492873609725265,0.0,0.0,0.0071263902747349395,0.0071263902747349395,,,,,0.0,,0.0,0.0,0.0,0.009310119051957388,0.0,0.0,0.009310119051957388,0.009310119051957388,0.0,0.0,0.0,0.0,0.0,0.0,10812.724563544101,10812.724563544101,10812.724563544101,10812.724563544101,0,0,0,0,2.2,1.9500000000000002,0,1,,,,,,,,1,,0,0.0,0.0,0.0,0.0,0.0
0.7651619911193848,,0.0,0.0,1.5,,,,0.0,0.0,1.4929198582900478,0.0,0.0,0.007080141709952192,0.007080141709952192,,,,,0.0,,0.0,0.0,0.0,0.009249712956531264,0.0,0.0,0.009249712956531264,0.009249712956531264,0.0,0.0,0.0,0.0,0.0,0.0,10812.724563544101,10812.724563544101,10812.724563544101,10812.724563544101,0,0,0,0,2.2,1.9500000000000002,0,1,,,,,,,,1,,0,0.0,0.0,0.0,0.0,0.0
0.7699990272521973,,0.0,0.0,1.5,,,,0.0,0.0,1.4929658068724387,0.0,0.0,0.007034193127561261,0.007034193127561261,,,,,0.0,,0.0,0.0,0.0,0.009189716478202164,0.0,0.0,0.009189716478202164,0.009189716478202164,0.0,0.0,0.0,0.0,0.0,0.0,10812.805012785524,10812.805012785524,10812.805012785524,10812.805012785524,0,0,0,0,2.2,1.9500000000000002,0,1,,,,,,,,1,,0,0.0,0.0,0.0,0.0,0.0
0.77512526512146,,0.0,0.0,1.5,,,,0.0,0.0,1.4930114573269644,0.0,0.0,0.006988542673035614,0.006988542673035614,,,,,0.0,,0.0,0.0,0.0,0.009130090905143249,0.0,0.0,0.009130090905143249,0.009130090905143249,0.0,0.0,0.0,0.0,0.0,0.0,10812.805012785524,10812.805012785524,10812.805012785524,10812.805012785524,0,0,0,0,2.2,1.9500000000000002,0,1,,,,,,,,1,,0,0.0,0.0,0.0,0.0,0.0
0.779987096786499,,0.0,0.0,1.5,,,,0.0,0.0,1.493056811675298,0.0,0.0,0.0069431883247019766,0.0069431883247019766,,,,,0.0,,0.0,0.0,0.0,0.009070869666722594,0.0,0.0,0.009070869666722594,0.009070869666722594,0.0,0.0,0.0,0.0,0.0,0.0,10812.884423678805,10812.884423678805,10812.884423678805,10812.884423678805,0,0,0,0,2.2,1.9500000000000002,0,1,,,,,,,,1,,0,0.0,0.0,0.0,0.0,0.0
0.7851805686950684,,0.0,0.0,1.5,,,,0.0,0.0,1.4931018717480495,0.0,0.0,0.006898128251950464,0.006898128251950464,,,,,0.0,,0.0,0.0,0.0,0.00901201455031876,0.0,0.0,0.00901201455031876,0.00901201455031876,0.0,0.0,0.0,0.0,0.0,0.0,10812.884423678805,10812.884423678805,10812.884423678805,10812.884423678805,0,0,0,0,2.2,1.9500000000000002,0,1,,,,,,,,1,,0,0.0,0.0,0.0,0.0,0.0
0.7899880409240723,,0.0,0.0,1.5,,,,0.0,0.0,1.493146639540819,0.0,0.0,0.006853360459180946,0.006853360459180946,,,,,0.0,,0.0,0.0,0.0,0.008953558553917261,0.0,0.0,0.008953558553917261,0.008953558553917261,0.0,0.0,0.0,0.0,0.0,0.0,10812.962809578856,10812.962809578856,10812.962809578856,10812.962809578856,0,0,0,0,2.2,1.9500000000000002,0,1,,,,,,,,1,,0,0.0,0.0,0.0,0.0,0.0
0.795177698135376,,0.0,0.0,1.5,,,,0.0,0.0,1.4931911168606076,0.0,0.0,0.00680888313939243,0.00680888313939243,,,,,0.0,,0.0,0.0,0.0,0.008895463957693316,0.0,0.0,0.008895463957693316,0.008895463957693316,0.0,0.0,0.0,0.0,0.0,0.0,10812.962809578856,10812.962809578856,10812.962809578856,10812.962809578856,0,0,0,0,2.2,1.9500000000000002,0,1,,,,,,,,1,,0,0.0,0.0,0.0,0.0,0.0
