recording_time_s,mission_time_s,goal_x,goal_y,goal_z,reference_x,reference_y,reference_z,actual_x,actual_y,actual_z,goal_error_x,goal_error_y,goal_error_z,goal_position_error,tracking_error_x,tracking_error_y,tracking_error_z,tracking_error,goal_yaw,reference_yaw,yaw_error,body_velocity_x,body_velocity_y,body_velocity_z,map_velocity_x,map_velocity_y,map_velocity_z,speed,roll,pitch,yaw,angular_speed_x,angular_speed_y,angular_speed_z,commanded_motor_rpm_m1,commanded_motor_rpm_m2,commanded_motor_rpm_m3,commanded_motor_rpm_m4,horizontal_saturated,altitude_saturated,attitude_saturated,mixer_saturated,raw_obstacle_distance,safety_clearance,mission_waypoint_index,mission_complete,mission_success,navigation_goal_index,navigation_visited_goals,navigation_complete,navigation_success,interactive_ready,interactive_active,interactive_goal_count,collision_state,external_wrench_active,external_force_x,external_force_y,external_force_z,integral_compensation_x,integral_compensation_y
0.0,,,,,,,,0.0,0.0,0.5761157400386541,,,,,,,,,,,,0.0,0.0,0.9565691400199333,0.0,0.0,0.9565691400199333,0.9565691400199333,0.0,0.0,0.0,0.0,0.0,0.0,,,,,,,,,2.2,1.9500000000000002,,,,,,,,,,,,,0.0,0.0,0.0,,
0.005013465881347656,,,,,,,,0.0,0.0,0.5808858212046171,,,,,,,,,,,,0.0,0.0,0.9540162331925911,0.0,0.0,0.9540162331925911,0.9540162331925911,0.0,0.0,0.0,0.0,0.0,0.0,,,,,,,,,2.2,1.9500000000000002,,,,,,,,,,,,,0.0,0.0,0.0,,
0.010046005249023438,,,,,,,,0.0,0.0,0.5856429461092165,,,,,,,,,,,,0.0,0.0,0.9514249809198873,0.0,0.0,0.9514249809198873,0.9514249809198873,0.0,0.0,0.0,0.0,0.0,0.0,10493.16198168683,10493.16198168683,10493.16198168683,10493.16198168683,0,0,0,0,2.2,1.9500000000000002,,,,,,,,,,,,,0.0,0.0,0.0,0.0,0.0
0.01504063606262207,,,,,,,,0.0,0.0,0.5903869414093724,,,,,,,,,,,,0.0,0.0,0.9487990600311764,0.0,0.0,0.9487990600311764,0.9487990600311764,0.0,0.0,0.0,0.0,0.0,0.0,10493.16198168683,10493.16198168683,10493.16198168683,10493.16198168683,0,0,0,0,2.2,1.9500000000000002,,,,,,,,,,,,,0.0,0.0,0.0,0.0,0.0
0.0199587345123291,0.00024819374084472656,0.0,0.0,1.5,,,,0.0,0.0,0.5951176259299304,0.0,0.0,0.9048823740700696,0.9048823740700696,,,,,0.0,,0.0,0.0,0.0,0.9461369041116057,0.0,0.0,0.9461369041116057,0.9461369041116057,0.0,0.0,0.0,0.0,0.0,0.0,10487.334624927638,10487.334624927638,10487.334624927638,10487.334624927638,0,0,0,0,2.2,1.9500000000000002,,,,,,,,,,,,0,0.0,0.0,0.0,0.0,0.0
0.025098085403442383,0.005387544631958008,0.0,0.0,1.5,,,,0.0,0.0,0.5998348358697215,0.0,0.0,0.9001651641302785,0.9001651641302785,,,,,0.0,,0.0,0.0,0.0,0.9434419879582232,0.0,0.0,0.9434419879582232,0.9434419879582232,0.0,0.0,0.0,0.0,0.0,0.0,10487.334624927638,10487.334624927638,10487.334624927638,10487.334624927638,0,0,0,0,2.2,1.9500000000000002,,,,,,,,,,,,0,0.0,0.0,0.0,0.0,0.0
0.030123472213745117,0.010412931442260742,0.0,0.0,1.5,,,,0.0,0.0,0.6045384002372522,0.0,0.0,0.8954615997627478,0.8954615997627478,,,,,0.0,,0.0,0.0,0.0,0.9407128735061496,0.0,0.0,0.9407128735061496,0.9407128735061496,0.0,0.0,0.0,0.0,0.0,0.0,10481.873728157909,10481.873728157909,10481.873728157909,10481.873728157909,0,0,0,0,2.2,1.9500000000000002,,,,,,,,,,,,0,0.0,0.0,0.0,0.0,0.0
0.035126686096191406,0.015416145324707031,0.0,0.0,1.5,,,,0.0,0.0,0.6092281644404542,0.0,0.0,0.8907718355595458,0.8907718355595458,,,,,0.0,,0.0,0.0,0.0,0.9379528406404001,0.0,0.0,0.9379528406404001,0.9379528406404001,0.0,0.0,0.0,0.0,0.0,0.0,10481.873728157909,10481.873728157909,10481.873728157909,10481.873728157909,0,0,0,0,2.2,1.9500000000000002,,,,,,,,,,,,0,0.0,0.0,0.0,0.0,0.0
0.04009890556335449,0.020388364791870117,0.0,0.0,1.5,,,,0.0,0.0,0.6139039673143203,0.0,0.0,0.8860960326856797,0.8860960326856797,,,,,0.0,,0.0,0.0,0.0,0.9351605747732135,0.0,0.0,0.9351605747732135,0.9351605747732135,0.0,0.0,0.0,0.0,0.0,0.0,10476.766556524004,10476.766556524004,10476.766556524004,10476.766556524004,0,0,0,0,2.2,1.9500000000000002,,,,,,,,,,,,0,0.0,0.0,0.0,0.0,0.0
0.04505276679992676,0.025342226028442383,0.0,0.0,1.5,,,,0.0,0.0,0.618565663153199,0.0,0.0,0.881434336846801,0.881434336846801,,,,,0.0,,0.0,0.0,0.0,0.9323391677757544,0.0,0.0,0.9323391677757544,0.9323391677757544,0.0,0.0,0.0,0.0,0.0,0.0,10476.766556524004,10476.766556524004,10476.766556524004,10476.766556524004,0,0,0,0,2.2,1.9500000000000002,,,,,,,,,,,,0,0.0,0.0,0.0,0.0,0.0
0.0501248836517334,0.030414342880249023,0.0,0.0,1.5,,,,0.0,0.0,0.6232131002723277,0.0,0.0,0.8767868997276723,0.8767868997276723,,,,,0.0,,0.0,0.0,0.0,0.9294874238257206,0.0,0.0,0.9294874238257206,0.9294874238257206,0.0,0.0,0.0,0.0,0.0,0.0,10472.0007298323,10472.0007298323,10472.0007298323,10472.0007298323,0,0,0,0,2.2,1.9500000000000002,,,,,,,,,,,,0,0.0,0.0,0.0,0.0,0.0
0.05518841743469238,0.03547787666320801,0.0,0.0,1.5,,,,0.0,0.0,0.6278461415396418,0.0,0.0,0.8721538584603582,0.8721538584603582,,,,,0.0,,0.0,0.0,0.0,0.9266082534628244,0.0,0.0,0.9266082534628244,0.9266082534628244,0.0,0.0,0.0,0.0,0.0,0.0,10472.0007298323,10472.0007298323,10472.0007298323,10472.0007298323,0,0,0,0,2.2,1.9500000000000002,,,,,,,,,,,,0,0.0,0.0,0.0,0.0,0.0
0.0599668025970459,0.04025626182556152,0.0,0.0,1.5,,,,0.0,0.0,0.6324646444150139,0.0,0.0,0.8675353555849861,0.8675353555849861,,,,,0.0,,0.0,0.0,0.0,0.9237005750744334,0.0,0.0,0.9237005750744334,0.9237005750744334,0.0,0.0,0.0,0.0,0.0,0.0,10467.56421540501,10467.56421540501,10467.56421540501,10467.56421540501,0,0,0,0,2.2,1.9500000000000002,,,,,,,,,,,,0,0.0,0.0,0.0,0.0,0.0
0.06518983840942383,0.04547929763793945,0.0,0.0,1.5,,,,0.0,0.0,0.637068480036722,0.0,0.0,0.862931519963278,0.862931519963278,,,,,0.0,,0.0,0.0,0.0,0.9207671243416081,0.0,0.0,0.9207671243416081,0.9207671243416081,0.0,0.0,0.0,0.0,0.0,0.0,10467.56421540501,10467.56421540501,10467.56421540501,10467.56421540501,0,0,0,0,2.2,1.9500000000000002,,,,,,,,,,,,0,0.0,0.0,0.0,0.0,0.0
0.0701596736907959,0.05044913291931152,0.0,0.0,1.5,,,,0.0,0.0,0.6416575146840038,0.0,0.0,0.8583424853159962,0.8583424853159962,,,,,0.0,,0.0,0.0,0.0,0.9178069294563482,0.0,0.0,0.9178069294563482,0.9178069294563482,0.0,0.0,0.0,0.0,0.0,0.0,10463.44532091833,10463.44532091833,10463.44532091833,10463.44532091833,0,0,0,0,2.2,1.9500000000000002,,,,,,,,,,,,0,0.0,0.0,0.0,0.0,0.0
0.07516884803771973,0.05545830726623535,0.0,0.0,1.5,,,,0.0,0.0,0.6462316274715554,0.0,0.0,0.8537683725284446,0.8537683725284446,,,,,0.0,,0.0,0.0,0.0,0.9148225575103262,0.0,0.0,0.9148225575103262,0.9148225575103262,0.0,0.0,0.0,0.0,0.0,0.0,10463.44532091833,10463.44532091833,10463.44532091833,10463.44532091833,0,0,0,0,2.2,1.9500000000000002,,,,,,,,,,,,0,0.0,0.0,0.0,0.0,0.0
0.08018183708190918,0.060471296310424805,0.0,0.0,1.5,,,,0.0,0.0,0.6507906931827602,0.0,0.0,0.8492093068172398,0.8492093068172398,,,,,0.0,,0.0,0.0,0.0,0.9118131422409557,0.0,0.0,0.9118131422409557,0.9118131422409557,0.0,0.0,0.0,0.0,0.0,0.0,10459.632687237543,10459.632687237543,10459.632687237543,10459.632687237543,0,0,0,0,2.2,1.9500000000000002,,,,,,,,,,,,0,0.0,0.0,0.0,0.0,0.0
0.08514690399169922,0.06543636322021484,0.0,0.0,1.5,,,,0.0,0.0,0.6553345986238711,0.0,0.0,0.8446654013761289,0.8446654013761289,,,,,0.0,,0.0,0.0,0.0,0.9087810882221777,0.0,0.0,0.9087810882221777,0.9087810882221777,0.0,0.0,0.0,0.0,0.0,0.0,10459.632687237543,10459.632687237543,10459.632687237543,10459.632687237543,0,0,0,0,2.2,1.9500000000000002,,,,,,,,,,,,0,0.0,0.0,0.0,0.0,0.0
0.09019637107849121,0.07048583030700684,0.0,0.0,1.5,,,,0.0,0.0,0.6598632267769645,0.0,0.0,0.8401367732230355,0.8401367732230355,,,,,0.0,,0.0,0.0,0.0,0.9057256306186748,0.0,0.0,0.9057256306186748,0.9057256306186748,0.0,0.0,0.0,0.0,0.0,0.0,10456.115281262275,10456.115281262275,10456.115281262275,10456.115281262275,0,0,0,0,2.2,1.9500000000000002,,,,,,,,,,,,0,0.0,0.0,0.0,0.0,0.0
0.0950920581817627,0.07538151741027832,0.0,0.0,1.5,,,,0.0,0.0,0.664376471863797,0.0,0.0,0.835623528136203,0.835623528136203,,,,,0.0,,0.0,0.0,0.0,0.9026490173664994,0.0,0.0,0.9026490173664994,0.9026490173664994,0.0,0.0,0.0,0.0,0.0,0.0,10456.115281262275,10456.115281262275,10456.115281262275,10456.115281262275,0,0,0,0,2.2,1.9500000000000002,,,,,,,,,,,,0,0.0,0.0,0.0,0.0,0.0
0.10001778602600098,0.0803072452545166,0.0,0.0,1.5,,,,0.0,0.0,0.6688742247691768,0.0,0.0,0.8311257752308232,0.8311257752308232,,,,,0.0,,0.0,0.0,0.0,0.8995505810759511,0.0,0.0,0.8995505810759511,0.8995505810759511,0.0,0.0,0.0,0.0,0.0,0.0,10452.882388793912,10452.882388793912,10452.882388793912,10452.882388793912,0,0,0,0,2.2,1.9500000000000002,,,,,,,,,,,,0,0.0,0.0,0.0,0.0,0.0
0.10531353950500488,0.08560299873352051,0.0,0.0,1.5,,,,0.0,0.0,0.6733563868628712,0.0,0.0,0.8266436131371288,0.8266436131371288,,,,,0.0,,0.0,0.0,0.0,0.8964324187388797,0.0,0.0,0.8964324187388797,0.8964324187388797,0.0,0.0,0.0,0.0,0.0,0.0,10452.882388793912,10452.882388793912,10452.882388793912,10452.882388793912,0,0,0,0,2.2,1.9500000000000002,,,,,,,,,,,,0,0.0,0.0,0.0,0.0,0.0
0.11017680168151855,0.09046626091003418,0.0,0.0,1.5,,,,0.0,0.0,0.6778228566456794,0.0,0.0,0.8221771433543206,0.8221771433543206,,,,,0.0,,0.0,0.0,0.0,0.8932939565616306,0.0,0.0,0.8932939565616306,0.8932939565616306,0.0,0.0,0.0,0.0,0.0,0.0,10449.923607435943,10449.923607435943,10449.923607435943,10449.923607435943,0,0,0,0,2.2,1.9500000000000002,,,,,,,,,,,,0,0.0,0.0,0.0,0.0,0.0
0.1151435375213623,0.09543299674987793,0.0,0.0,1.5,,,,0.0,0.0,0.6822735423762039,0.0,0.0,0.8177264576237961,0.8177264576237961,,,,,0.0,,0.0,0.0,0.0,0.8901371461048951,0.0,0.0,0.8901371461048951,0.8901371461048951,0.0,0.0,0.0,0.0,0.0,0.0,10449.923607435943,10449.923607435943,10449.923607435943,10449.923607435943,0,0,0,0,2.2,1.9500000000000002,,,,,,,,,,,,0,0.0,0.0,0.0,0.0,0.0
0.1200263500213623,0.10031580924987793,0.0,0.0,1.5,,,,0.0,0.0,0.6867083498934504,0.0,0.0,0.8132916501065496,0.8132916501065496,,,,,0.0,,0.0,0.0,0.0,0.8869615034493129,0.0,0.0,0.8869615034493129,0.8869615034493129,0.0,0.0,0.0,0.0,0.0,0.0,10447.22883953704,10447.22883953704,10447.22883953704,10447.22883953704,0,0,0,0,2.2,1.9500000000000002,,,,,,,,,,,,0,0.0,0.0,0.0,0.0,0.0
0.12507247924804688,0.1053619384765625,0.0,0.0,1.5,,,,0.0,0.0,0.6911271940937614,0.0,0.0,0.8088728059062386,0.8088728059062386,,,,,0.0,,0.0,0.0,0.0,0.8837688400621965,0.0,0.0,0.8837688400621965,0.8837688400621965,0.0,0.0,0.0,0.0,0.0,0.0,10447.22883953704,10447.22883953704,10447.22883953704,10447.22883953704,0,0,0,0,2.2,1.9500000000000002,,,,,,,,,,,,0,0.0,0.0,0.0,0.0,0.0
0.13012313842773438,0.11041259765625,0.0,0.0,1.5,,,,0.0,0.0,0.6955299878852637,0.0,0.0,0.8044700121147363,0.8044700121147363,,,,,0.0,,0.0,0.0,0.0,0.8805587583004355,0.0,0.0,0.8805587583004355,0.8805587583004355,0.0,0.0,0.0,0.0,0.0,0.0,10444.78828518568,10444.78828518568,10444.78828518568,10444.78828518568,0,0,0,0,2.2,1.9500000000000002,,,,,,,,,,,,0,0.0,0.0,0.0,0.0,0.0
0.13509678840637207,0.1153862476348877,0.0,0.0,1.5,,,,0.0,0.0,0.6999166525587922,0.0,0.0,0.8000833474412078,0.8000833474412078,,,,,0.0,,0.0,0.0,0.0,0.8773329347057147,0.0,0.0,0.8773329347057147,0.8773329347057147,0.0,0.0,0.0,0.0,0.0,0.0,10444.78828518568,10444.78828518568,10444.78828518568,10444.78828518568,0,0,0,0,2.2,1.9500000000000002,,,,,,,,,,,,0,0.0,0.0,0.0,0.0,0.0
0.13994193077087402,0.12023138999938965,0.0,0.0,1.5,,,,0.0,0.0,0.7042871078309565,0.0,0.0,0.7957128921690435,0.7957128921690435,,,,,0.0,,0.0,0.0,0.0,0.8740910544328657,0.0,0.0,0.8740910544328657,0.8740910544328657,0.0,0.0,0.0,0.0,0.0,0.0,10442.592435264269,10442.592435264269,10442.592435264269,10442.592435264269,0,0,0,0,2.2,1.9500000000000002,,,,,,,,,,,,0,0.0,0.0,0.0,0.0,0.0
0.14512395858764648,0.1254134178161621,0.0,0.0,1.5,,,,0.0,0.0,0.7086412811514603,0.0,0.0,0.7913587188485397,0.7913587188485397,,,,,0.0,,0.0,0.0,0.0,0.8708346641007646,0.0,0.0,0.8708346641007646,0.8708346641007646,0.0,0.0,0.0,0.0,0.0,0.0,10442.592435264269,10442.592435264269,10442.592435264269,10442.592435264269,0,0,0,0,2.2,1.9500000000000002,,,,,,,,,,,,0,0.0,0.0,0.0,0.0,0.0
0.15000510215759277,0.1302945613861084,0.0,0.0,1.5,,,,0.0,0.0,0.7129790987929592,0.0,0.0,0.7870209012070408,0.7870209012070408,,,,,0.0,,0.0,0.0,0.0,0.8675635282997761,0.0,0.0,0.8675635282997761,0.8675635282997761,0.0,0.0,0.0,0.0,0.0,0.0,10440.632064569936,10440.632064569936,10440.632064569936,10440.632064569936,0,0,0,0,2.2,1.9500000000000002,,,,,,,,,,,,0,0.0,0.0,0.0,0.0,0.0
0.15520429611206055,0.13549375534057617,0.0,0.0,1.5,,,,0.0,0.0,0.7173004941358032,0.0,0.0,0.7826995058641968,0.7826995058641968,,,,,0.0,,0.0,0.0,0.0,0.8642790685688144,0.0,0.0,0.8642790685688144,0.8642790685688144,0.0,0.0,0.0,0.0,0.0,0.0,10440.632064569936,10440.632064569936,10440.632064569936,10440.632064569936,0,0,0,0,2.2,1.9500000000000002,,,,,,,,,,,,0,0.0,0.0,0.0,0.0,0.0
0.16022300720214844,0.14051246643066406,0.0,0.0,1.5,,,,0.0,0.0,0.721605399764221,0.0,0.0,0.778394600235779,0.778394600235779,,,,,0.0,,0.0,0.0,0.0,0.8609811256835603,0.0,0.0,0.8609811256835603,0.8609811256835603,0.0,0.0,0.0,0.0,0.0,0.0,10438.89822500839,10438.89822500839,10438.89822500839,10438.89822500839,0,0,0,0,2.2,1.9500000000000002,,,,,,,,,,,,0,0.0,0.0,0.0,0.0,0.0
0.16521000862121582,0.14549946784973145,0.0,0.0,1.5,,,,0.0,0.0,0.7258937547681743,0.0,0.0,0.7741062452318257,0.7741062452318257,,,,,0.0,,0.0,0.0,0.0,0.8576710007906628,0.0,0.0,0.8576710007906628,0.8576710007906628,0.0,0.0,0.0,0.0,0.0,0.0,10438.89822500839,10438.89822500839,10438.89822500839,10438.89822500839,0,0,0,0,2.2,1.9500000000000002,,,,,,,,,,,,0,0.0,0.0,0.0,0.0,0.0
0.1700601577758789,0.15034961700439453,0.0,0.0,1.5,,,,0.0,0.0,0.7301654978067218,0.0,0.0,0.7698345021932782,0.7698345021932782,,,,,0.0,,0.0,0.0,0.0,0.8543486077095087,0.0,0.0,0.8543486077095087,0.8543486077095087,0.0,0.0,0.0,0.0,0.0,0.0,10437.382238866605,10437.382238866605,10437.382238866605,10437.382238866605,0,0,0,0,2.2,1.9500000000000002,,,,,,,,,,,,0,0.0,0.0,0.0,0.0,0.0
0.17519736289978027,0.1554868221282959,0.0,0.0,1.5,,,,0.0,0.0,0.7344205734653804,0.0,0.0,0.7655794265346196,0.7655794265346196,,,,,0.0,,0.0,0.0,0.0,0.8510151317317177,0.0,0.0,0.8510151317317177,0.8510151317317177,0.0,0.0,0.0,0.0,0.0,0.0,10437.382238866605,10437.382238866605,10437.382238866605,10437.382238866605,0,0,0,0,2.2,1.9500000000000002,,,,,,,,,,,,0,0.0,0.0,0.0,0.0,0.0
0.17996597290039062,0.16025543212890625,0.0,0.0,1.5,,,,0.0,0.0,0.7386589262487999,0.0,0.0,0.7613410737512001,0.7613410737512001,,,,,0.0,,0.0,0.0,0.0,0.8476705566839149,0.0,0.0,0.8476705566839149,0.8476705566839149,0.0,0.0,0.0,0.0,0.0,0.0,10436.075692169454,10436.075692169454,10436.075692169454,10436.075692169454,0,0,0,0,2.2,1.9500000000000002,,,,,,,,,,,,0,0.0,0.0,0.0,0.0,0.0
0.18514537811279297,0.1654348373413086,0.0,0.0,1.5,,,,0.0,0.0,0.74288050603077,0.0,0.0,0.75711949396923,0.75711949396923,,,,,0.0,,0.0,0.0,0.0,0.8443159563940215,0.0,0.0,0.8443159563940215,0.8443159563940215,0.0,0.0,0.0,0.0,0.0,0.0,10436.075692169454,10436.075692169454,10436.075692169454,10436.075692169454,0,0,0,0,2.2,1.9500000000000002,,,,,,,,,,,,0,0.0,0.0,0.0,0.0,0.0
0.19017672538757324,0.17046618461608887,0.0,0.0,1.5,,,,0.0,0.0,0.7470852629395761,0.0,0.0,0.7529147370604239,0.7529147370604239,,,,,0.0,,0.0,0.0,0.0,0.8409513817612232,0.0,0.0,0.8409513817612232,0.8409513817612232,0.0,0.0,0.0,0.0,0.0,0.0,10434.97042812484,10434.97042812484,10434.97042812484,10434.97042812484,0,0,0,0,2.2,1.9500000000000002,,,,,,,,,,,,0,0.0,0.0,0.0,0.0,0.0
0.19516563415527344,0.17545509338378906,0.0,0.0,1.5,,,,0.0,0.0,0.7512731519365741,0.0,0.0,0.7487268480634259,0.7487268480634259,,,,,0.0,,0.0,0.0,0.0,0.8375777993995968,0.0,0.0,0.8375777993995968,0.8375777993995968,0.0,0.0,0.0,0.0,0.0,0.0,10434.97042812484,10434.97042812484,10434.97042812484,10434.97042812484,0,0,0,0,2.2,1.9500000000000002,,,,,,,,,,,,0,0.0,0.0,0.0,0.0,0.0
0.20000815391540527,0.1802976131439209,0.0,0.0,1.5,,,,0.0,0.0,0.7554441285587978,0.0,0.0,0.7445558714412022,0.7445558714412022,,,,,0.0,,0.0,0.0,0.0,0.8341953244447599,0.0,0.0,0.8341953244447599,0.8341953244447599,0.0,0.0,0.0,0.0,0.0,0.0,10434.058540661337,10434.058540661337,10434.058540661337,10434.058540661337,0,0,0,0,2.2,1.9500000000000002,,,,,,,,,,,,0,0.0,0.0,0.0,0.0,0.0
0.20518016815185547,0.1854696273803711,0.0,0.0,1.5,,,,0.0,0.0,0.759598152660846,0.0,0.0,0.740401847339154,0.740401847339154,,,,,0.0,,0.0,0.0,0.0,0.8308048204096202,0.0,0.0,0.8308048204096202,0.8308048204096202,0.0,0.0,0.0,0.0,0.0,0.0,10434.058540661337,10434.058540661337,10434.058540661337,10434.058540661337,0,0,0,0,2.2,1.9500000000000002,,,,,,,,,,,,0,0.0,0.0,0.0,0.0,0.0
0.21017074584960938,0.190460205078125,0.0,0.0,1.5,,,,0.0,0.0,0.7637351849804735,0.0,0.0,0.7362648150195265,0.7362648150195265,,,,,0.0,,0.0,0.0,0.0,0.8274064639255116,0.0,0.0,0.8274064639255116,0.8274064639255116,0.0,0.0,0.0,0.0,0.0,0.0,10433.332368061863,10433.332368061863,10433.332368061863,10433.332368061863,0,0,0,0,2.2,1.9500000000000002,,,,,,,,,,,,0,0.0,0.0,0.0,0.0,0.0
0.21516871452331543,0.19545817375183105,0.0,0.0,1.5,,,,0.0,0.0,0.7678551900773928,0.0,0.0,0.7321448099226072,0.7321448099226072,,,,,0.0,,0.0,0.0,0.0,0.8240010193838477,0.0,0.0,0.8240010193838477,0.8240010193838477,0.0,0.0,0.0,0.0,0.0,0.0,10433.332368061863,10433.332368061863,10433.332368061863,10433.332368061863,0,0,0,0,2.2,1.9500000000000002,,,,,,,,,,,,0,0.0,0.0,0.0,0.0,0.0
0.21994686126708984,0.20023632049560547,0.0,0.0,1.5,,,,0.0,0.0,0.7719581336887095,0.0,0.0,0.7280418663112905,0.7280418663112905,,,,,0.0,,0.0,0.0,0.0,0.8205887222633399,0.0,0.0,0.8205887222633399,0.8205887222633399,0.0,0.0,0.0,0.0,0.0,0.0,10432.784486696472,10432.784486696472,10432.784486696472,10432.784486696472,0,0,0,0,2.2,1.9500000000000002,,,,,,,,,,,,0,0.0,0.0,0.0,0.0,0.0
0.2251279354095459,0.20541739463806152,0.0,0.0,1.5,,,,0.0,0.0,0.7760439848971327,0.0,0.0,0.7239560151028673,0.7239560151028673,,,,,0.0,,0.0,0.0,0.0,0.8171702416846355,0.0,0.0,0.8171702416846355,0.8171702416846355,0.0,0.0,0.0,0.0,0.0,0.0,10432.784486696472,10432.784486696472,10432.784486696472,10432.784486696472,0,0,0,0,2.2,1.9500000000000002,,,,,,,,,,,,0,0.0,0.0,0.0,0.0,0.0
0.23017334938049316,0.2104628086090088,0.0,0.0,1.5,,,,0.0,0.0,0.7801127142442073,0.0,0.0,0.7198872857557927,0.7198872857557927,,,,,0.0,,0.0,0.0,0.0,0.8137458694149267,0.0,0.0,0.8137458694149267,0.8137458694149267,0.0,0.0,0.0,0.0,0.0,0.0,10432.407704856874,10432.407704856874,10432.407704856874,10432.407704856874,0,0,0,0,2.2,1.9500000000000002,,,,,,,,,,,,0,0.0,0.0,0.0,0.0,0.0
0.23505067825317383,0.21534013748168945,0.0,0.0,1.5,,,,0.0,0.0,0.7841642951593563,0.0,0.0,0.7158357048406437,0.7158357048406437,,,,,0.0,,0.0,0.0,0.0,0.8103161830298117,0.0,0.0,0.8103161830298117,0.8103161830298117,0.0,0.0,0.0,0.0,0.0,0.0,10432.407704856874,10432.407704856874,10432.407704856874,10432.407704856874,0,0,0,0,2.2,1.9500000000000002,,,,,,,,,,,,0,0.0,0.0,0.0,0.0,0.0
0.24013996124267578,0.2204294204711914,0.0,0.0,1.5,,,,0.0,0.0,0.7881987027999195,0.0,0.0,0.7118012972000805,0.7118012972000805,,,,,0.0,,0.0,0.0,0.0,0.8068815281126658,0.0,0.0,0.8068815281126658,0.8068815281126658,0.0,0.0,0.0,0.0,0.0,0.0,10432.195056695004,10432.195056695004,10432.195056695004,10432.195056695004,0,0,0,0,2.2,1.9500000000000002,,,,,,,,,,,,0,0.0,0.0,0.0,0.0,0.0
0.24517488479614258,0.2254643440246582,0.0,0.0,1.5,,,,0.0,0.0,0.7922159147714124,0.0,0.0,0.7077840852285876,0.7077840852285876,,,,,0.0,,0.0,0.0,0.0,0.8034423942985655,0.0,0.0,0.8034423942985655,0.8034423942985655,0.0,0.0,0.0,0.0,0.0,0.0,10432.195056695004,10432.195056695004,10432.195056695004,10432.195056695004,0,0,0,0,2.2,1.9500000000000002,,,,,,,,,,,,0,0.0,0.0,0.0,0.0,0.0
0.2499985694885254,0.23028802871704102,0.0,0.0,1.5,,,,0.0,0.0,0.7962159106644054,0.0,0.0,0.7037840893355946,0.7037840893355946,,,,,0.0,,0.0,0.0,0.0,0.7999991785986191,0.0,0.0,0.7999991785986191,0.7999991785986191,0.0,0.0,0.0,0.0,0.0,0.0,10432.139796267476,10432.139796267476,10432.139796267476,10432.139796267476,0,0,0,0,2.2,1.9500000000000002,,,,,,,,,,,,0,0.0,0.0,0.0,0.0,0.0
0.25501465797424316,0.2353041172027588,0.0,0.0,1.5,,,,0.0,0.0,0.8001986720953775,0.0,0.0,0.6998013279046225,0.6998013279046225,,,,,0.0,,0.0,0.0,0.0,0.7965522861944274,0.0,0.0,0.7965522861944274,0.7965522861944274,0.0,0.0,0.0,0.0,0.0,0.0,10432.139796267476,10432.139796267476,10432.139796267476,10432.139796267476,0,0,0,0,2.2,1.9500000000000002,,,,,,,,,,,,0,0.0,0.0,0.0,0.0,0.0
0.26009321212768555,0.24038267135620117,0.0,0.0,1.5,,,,0.0,0.0,0.8041641829114654,0.0,0.0,0.6958358170885346,0.6958358170885346,,,,,0.0,,0.0,0.0,0.0,0.7931021632175668,0.0,0.0,0.7931021632175668,0.7931021632175668,0.0,0.0,0.0,0.0,0.0,0.0,10432.235391687505,10432.235391687505,10432.235391687505,10432.235391687505,0,0,0,0,2.2,1.9500000000000002,,,,,,,,,,,,0,0.0,0.0,0.0,0.0,0.0
0.265216588973999,0.24550604820251465,0.0,0.0,1.5,,,,0.0,0.0,0.8081124285803121,0.0,0.0,0.6918875714196879,0.6918875714196879,,,,,0.0,,0.0,0.0,0.0,0.7896491337693246,0.0,0.0,0.7896491337693246,0.7896491337693246,0.0,0.0,0.0,0.0,0.0,0.0,10432.235391687505,10432.235391687505,10432.235391687505,10432.235391687505,0,0,0,0,2.2,1.9500000000000002,,,,,,,,,,,,0,0.0,0.0,0.0,0.0,0.0
0.270092248916626,0.2503817081451416,0.0,0.0,1.5,,,,0.0,0.0,0.8120433970346775,0.0,0.0,0.6879566029653225,0.6879566029653225,,,,,0.0,,0.0,0.0,0.0,0.7861936908730862,0.0,0.0,0.7861936908730862,0.7861936908730862,0.0,0.0,0.0,0.0,0.0,0.0,10432.475519385554,10432.475519385554,10432.475519385554,10432.475519385554,0,0,0,0,2.2,1.9500000000000002,,,,,,,,,,,,0,0.0,0.0,0.0,0.0,0.0
0.2751436233520508,0.2554330825805664,0.0,0.0,1.5,,,,0.0,0.0,0.8159570774387406,0.0,0.0,0.6840429225612594,0.6840429225612594,,,,,0.0,,0.0,0.0,0.0,0.7827360808125976,0.0,0.0,0.7827360808125976,0.7827360808125976,0.0,0.0,0.0,0.0,0.0,0.0,10432.475519385554,10432.475519385554,10432.475519385554,10432.475519385554,0,0,0,0,2.2,1.9500000000000002,,,,,,,,,,,,0,0.0,0.0,0.0,0.0,0.0
0.28018808364868164,0.26047754287719727,0.0,0.0,1.5,,,,0.0,0.0,0.8198534616454931,0.0,0.0,0.6801465383545069,0.6801465383545069,,,,,0.0,,0.0,0.0,0.0,0.7792768413505041,0.0,0.0,0.7792768413505041,0.7792768413505041,0.0,0.0,0.0,0.0,0.0,0.0,10432.85405847968,10432.85405847968,10432.85405847968,10432.85405847968,0,0,0,0,2.2,1.9500000000000002,,,,,,,,,,,,0,0.0,0.0,0.0,0.0,0.0
0.2851297855377197,0.26541924476623535,0.0,0.0,1.5,,,,0.0,0.0,0.823732542366037,0.0,0.0,0.676267457633963,0.676267457633963,,,,,0.0,,0.0,0.0,0.0,0.7758161441087789,0.0,0.0,0.7758161441087789,0.7758161441087789,0.0,0.0,0.0,0.0,0.0,0.0,10432.85405847968,10432.85405847968,10432.85405847968,10432.85405847968,0,0,0,0,2.2,1.9500000000000002,,,,,,,,,,,,0,0.0,0.0,0.0,0.0,0.0
0.29016804695129395,0.27045750617980957,0.0,0.0,1.5,,,,0.0,0.0,0.8275943152135894,0.0,0.0,0.6724056847864106,0.6724056847864106,,,,,0.0,,0.0,0.0,0.0,0.7723545695104704,0.0,0.0,0.7723545695104704,0.7723545695104704,0.0,0.0,0.0,0.0,0.0,0.0,10433.365085256235,10433.365085256235,10433.365085256235,10433.365085256235,0,0,0,0,2.2,1.9500000000000002,,,,,,,,,,,,0,0.0,0.0,0.0,0.0,0.0
0.2951328754425049,0.2754223346710205,0.0,0.0,1.5,,,,0.0,0.0,0.8314387763014286,0.0,0.0,0.6685612236985714,0.6685612236985714,,,,,0.0,,0.0,0.0,0.0,0.7688922175678319,0.0,0.0,0.7688922175678319,0.7688922175678319,0.0,0.0,0.0,0.0,0.0,0.0,10433.365085256235,10433.365085256235,10433.365085256235,10433.365085256235,0,0,0,0,2.2,1.9500000000000002,,,,,,,,,,,,0,0.0,0.0,0.0,0.0,0.0
0.2999420166015625,0.2802314758300781,0.0,0.0,1.5,,,,0.0,0.0,0.8352659248482126,0.0,0.0,0.6647340751517874,0.6647340751517874,,,,,0.0,,0.0,0.0,0.0,0.7654297093568105,0.0,0.0,0.7654297093568105,0.7654297093568105,0.0,0.0,0.0,0.0,0.0,0.0,10434.002867761425,10434.002867761425,10434.002867761425,10434.002867761425,0,0,0,0,2.2,1.9500000000000002,,,,,,,,,,,,0,0.0,0.0,0.0,0.0,0.0
0.30501317977905273,0.28530263900756836,0.0,0.0,1.5,,,,0.0,0.0,0.8390757602293699,0.0,0.0,0.6609242397706301,0.6609242397706301,,,,,0.0,,0.0,0.0,0.0,0.761967076231465,0.0,0.0,0.761967076231465,0.761967076231465,0.0,0.0,0.0,0.0,0.0,0.0,10434.002867761425,10434.002867761425,10434.002867761425,10434.002867761425,0,0,0,0,2.2,1.9500000000000002,,,,,,,,,,,,0,0.0,0.0,0.0,0.0,0.0
0.3101363182067871,0.29042577743530273,0.0,0.0,1.5,,,,0.0,0.0,0.842868285119281,0.0,0.0,0.657131714880719,0.657131714880719,,,,,0.0,,0.0,0.0,0.0,0.7585049779822217,0.0,0.0,0.7585049779822217,0.7585049779822217,0.0,0.0,0.0,0.0,0.0,0.0,10434.761860503922,10434.761860503922,10434.761860503922,10434.761860503922,0,0,0,0,2.2,1.9500000000000002,,,,,,,,,,,,0,0.0,0.0,0.0,0.0,0.0
0.3151583671569824,0.29544782638549805,0.0,0.0,1.5,,,,0.0,0.0,0.8466435020200762,0.0,0.0,0.6533564979799238,0.6533564979799238,,,,,0.0,,0.0,0.0,0.0,0.7550433801590377,0.0,0.0,0.7550433801590377,0.7550433801590377,0.0,0.0,0.0,0.0,0.0,0.0,10434.761860503922,10434.761860503922,10434.761860503922,10434.761860503922,0,0,0,0,2.2,1.9500000000000002,,,,,,,,,,,,0,0.0,0.0,0.0,0.0,0.0
0.32010769844055176,0.3003971576690674,0.0,0.0,1.5,,,,0.0,0.0,0.8504014169170526,0.0,0.0,0.6495985830829474,0.6495985830829474,,,,,0.0,,0.0,0.0,0.0,0.7515829793952887,0.0,0.0,0.7515829793952887,0.7515829793952887,0.0,0.0,0.0,0.0,0.0,0.0,10435.636699268562,10435.636699268562,10435.636699268562,10435.636699268562,0,0,0,0,2.2,1.9500000000000002,,,,,,,,,,,,0,0.0,0.0,0.0,0.0,0.0
0.32515406608581543,0.30544352531433105,0.0,0.0,1.5,,,,0.0,0.0,0.8541420353080351,0.0,0.0,0.6458579646919649,0.6458579646919649,,,,,0.0,,0.0,0.0,0.0,0.7481236781964905,0.0,0.0,0.7481236781964905,0.7481236781964905,0.0,0.0,0.0,0.0,0.0,0.0,10435.636699268562,10435.636699268562,10435.636699268562,10435.636699268562,0,0,0,0,2.2,1.9500000000000002,,,,,,,,,,,,0,0.0,0.0,0.0,0.0,0.0
0.33010053634643555,0.31038999557495117,0.0,0.0,1.5,,,,0.0,0.0,0.8578653663491961,0.0,0.0,0.6421346336508039,0.6421346336508039,,,,,0.0,,0.0,0.0,0.0,0.7446662082322023,0.0,0.0,0.7446662082322023,0.7446662082322023,0.0,0.0,0.0,0.0,0.0,0.0,10436.622196040937,10436.622196040937,10436.622196040937,10436.622196040937,0,0,0,0,2.2,1.9500000000000002,,,,,,,,,,,,0,0.0,0.0,0.0,0.0,0.0
0.3351116180419922,0.3154010772705078,0.0,0.0,1.5,,,,0.0,0.0,0.8615714184073543,0.0,0.0,0.6384285815926457,0.6384285815926457,,,,,0.0,,0.0,0.0,0.0,0.7412104116316374,0.0,0.0,0.7412104116316374,0.7412104116316374,0.0,0.0,0.0,0.0,0.0,0.0,10436.622196040937,10436.622196040937,10436.622196040937,10436.622196040937,0,0,0,0,2.2,1.9500000000000002,,,,,,,,,,,,0,0.0,0.0,0.0,0.0,0.0
0.33996105194091797,0.3202505111694336,0.0,0.0,1.5,,,,0.0,0.0,0.8652602036741367,0.0,0.0,0.6347397963258633,0.6347397963258633,,,,,0.0,,0.0,0.0,0.0,0.7377570533564775,0.0,0.0,0.7377570533564775,0.7377570533564775,0.0,0.0,0.0,0.0,0.0,0.0,10437.713334042586,10437.713334042586,10437.713334042586,10437.713334042586,0,0,0,0,2.2,1.9500000000000002,,,,,,,,,,,,0,0.0,0.0,0.0,0.0,0.0
0.34520959854125977,0.3254990577697754,0.0,0.0,1.5,,,,0.0,0.0,0.868931733262832,0.0,0.0,0.631068266737168,0.631068266737168,,,,,0.0,,0.0,0.0,0.0,0.734305917739075,0.0,0.0,0.734305917739075,0.734305917739075,0.0,0.0,0.0,0.0,0.0,0.0,10437.713334042586,10437.713334042586,10437.713334042586,10437.713334042586,0,0,0,0,2.2,1.9500000000000002,,,,,,,,,,,,0,0.0,0.0,0.0,0.0,0.0
0.34999585151672363,0.33028531074523926,0.0,0.0,1.5,,,,0.0,0.0,0.8725860222695815,0.0,0.0,0.6274139777304185,0.6274139777304185,,,,,0.0,,0.0,0.0,0.0,0.7308578013498829,0.0,0.0,0.7308578013498829,0.7308578013498829,0.0,0.0,0.0,0.0,0.0,0.0,10438.905262876176,10438.905262876176,10438.905262876176,10438.905262876176,0,0,0,0,2.2,1.9500000000000002,,,,,,,,,,,,0,0.0,0.0,0.0,0.0,0.0
0.35511159896850586,0.3354010581970215,0.0,0.0,1.5,,,,0.0,0.0,0.8762230844356709,0.0,0.0,0.6237769155643291,0.6237769155643291,,,,,0.0,,0.0,0.0,0.0,0.7274124332178754,0.0,0.0,0.7274124332178754,0.7274124332178754,0.0,0.0,0.0,0.0,0.0,0.0,10438.905262876176,10438.905262876176,10438.905262876176,10438.905262876176,0,0,0,0,2.2,1.9500000000000002,,,,,,,,,,,,0,0.0,0.0,0.0,0.0,0.0
0.360156774520874,0.34044623374938965,0.0,0.0,1.5,,,,0.0,0.0,0.8798429376351594,0.0,0.0,0.6201570623648406,0.6201570623648406,,,,,0.0,,0.0,0.0,0.0,0.7239706398977032,0.0,0.0,0.7239706398977032,0.7239706398977032,0.0,0.0,0.0,0.0,0.0,0.0,10440.19329378013,10440.19329378013,10440.19329378013,10440.19329378013,0,0,0,0,2.2,1.9500000000000002,,,,,,,,,,,,0,0.0,0.0,0.0,0.0,0.0
0.3651154041290283,0.34540486335754395,0.0,0.0,1.5,,,,0.0,0.0,0.8834455981227851,0.0,0.0,0.6165544018772149,0.6165544018772149,,,,,0.0,,0.0,0.0,0.0,0.7205320975251435,0.0,0.0,0.7205320975251435,0.7205320975251435,0.0,0.0,0.0,0.0,0.0,0.0,10440.19329378013,10440.19329378013,10440.19329378013,10440.19329378013,0,0,0,0,2.2,1.9500000000000002,,,,,,,,,,,,0,0.0,0.0,0.0,0.0,0.0
0.3699924945831299,0.3502819538116455,0.0,0.0,1.5,,,,0.0,0.0,0.887031086428142,0.0,0.0,0.612968913571858,0.612968913571858,,,,,0.0,,0.0,0.0,0.0,0.7170976610713784,0.0,0.0,0.7170976610713784,0.7170976610713784,0.0,0.0,0.0,0.0,0.0,0.0,10441.572894991807,10441.572894991807,10441.572894991807,10441.572894991807,0,0,0,0,2.2,1.9500000000000002,,,,,,,,,,,,0,0.0,0.0,0.0,0.0,0.0
0.3751072883605957,0.35539674758911133,0.0,0.0,1.5,,,,0.0,0.0,0.8905994212086842,0.0,0.0,0.6094005787913158,0.6094005787913158,,,,,0.0,,0.0,0.0,0.0,0.7136669561084428,0.0,0.0,0.7136669561084428,0.7136669561084428,0.0,0.0,0.0,0.0,0.0,0.0,10441.572894991807,10441.572894991807,10441.572894991807,10441.572894991807,0,0,0,0,2.2,1.9500000000000002,,,,,,,,,,,,0,0.0,0.0,0.0,0.0,0.0
0.38001394271850586,0.3603034019470215,0.0,0.0,1.5,,,,0.0,0.0,0.8941506255312416,0.0,0.0,0.6058493744687584,0.6058493744687584,,,,,0.0,,0.0,0.0,0.0,0.7102408645114777,0.0,0.0,0.7102408645114777,0.7102408645114777,0.0,0.0,0.0,0.0,0.0,0.0,10443.039687218381,10443.039687218381,10443.039687218381,10443.039687218381,0,0,0,0,2.2,1.9500000000000002,,,,,,,,,,,,0,0.0,0.0,0.0,0.0,0.0
0.38510727882385254,0.36539673805236816,0.0,0.0,1.5,,,,0.0,0.0,0.8976847203489416,0.0,0.0,0.6023152796510584,0.6023152796510584,,,,,0.0,,0.0,0.0,0.0,0.7068189635400038,0.0,0.0,0.7068189635400038,0.7068189635400038,0.0,0.0,0.0,0.0,0.0,0.0,10443.039687218381,10443.039687218381,10443.039687218381,10443.039687218381,0,0,0,0,2.2,1.9500000000000002,,,,,,,,,,,,0,0.0,0.0,0.0,0.0,0.0
0.39014625549316406,0.3704357147216797,0.0,0.0,1.5,,,,0.0,0.0,0.901201731151511,0.0,0.0,0.598798268848489,0.598798268848489,,,,,0.0,,0.0,0.0,0.0,0.7034021605138868,0.0,0.0,0.7034021605138868,0.7034021605138868,0.0,0.0,0.0,0.0,0.0,0.0,10444.58943921438,10444.58943921438,10444.58943921438,10444.58943921438,0,0,0,0,2.2,1.9500000000000002,,,,,,,,,,,,0,0.0,0.0,0.0,0.0,0.0
0.39516377449035645,0.37545323371887207,0.0,0.0,1.5,,,,0.0,0.0,0.9047016810842888,0.0,0.0,0.5952983189157112,0.5952983189157112,,,,,0.0,,0.0,0.0,0.0,0.6999899865555584,0.0,0.0,0.6999899865555584,0.6999899865555584,0.0,0.0,0.0,0.0,0.0,0.0,10444.58943921438,10444.58943921438,10444.58943921438,10444.58943921438,0,0,0,0,2.2,1.9500000000000002,,,,,,,,,,,,0,0.0,0.0,0.0,0.0,0.0
0.40013575553894043,0.38042521476745605,0.0,0.0,1.5,,,,0.0,0.0,0.9081845979493989,0.0,0.0,0.5918154020506011,0.5918154020506011,,,,,0.0,,0.0,0.0,0.0,0.6965833730220112,0.0,0.0,0.6965833730220112,0.6965833730220112,0.0,0.0,0.0,0.0,0.0,0.0,10446.218063464736,10446.218063464736,10446.218063464736,10446.218063464736,0,0,0,0,2.2,1.9500000000000002,,,,,,,,,,,,0,0.0,0.0,0.0,0.0,0.0
0.4051060676574707,0.38539552688598633,0.0,0.0,1.5,,,,0.0,0.0,0.9116505069844016,0.0,0.0,0.5883494930155984,0.5883494930155984,,,,,0.0,,0.0,0.0,0.0,0.6931818070005606,0.0,0.0,0.6931818070005606,0.6931818070005606,0.0,0.0,0.0,0.0,0.0,0.0,10446.218063464736,10446.218063464736,10446.218063464736,10446.218063464736,0,0,0,0,2.2,1.9500000000000002,,,,,,,,,,,,0,0.0,0.0,0.0,0.0,0.0
0.4101889133453369,0.39047837257385254,0.0,0.0,1.5,,,,0.0,0.0,0.9150994381970402,0.0,0.0,0.5849005618029598,0.5849005618029598,,,,,0.0,,0.0,0.0,0.0,0.6897862425277176,0.0,0.0,0.6897862425277176,0.6897862425277176,0.0,0.0,0.0,0.0,0.0,0.0,10447.921611972137,10447.921611972137,10447.921611972137,10447.921611972137,0,0,0,0,2.2,1.9500000000000002,,,,,,,,,,,,0,0.0,0.0,0.0,0.0,0.0
0.4152061939239502,0.3954956531524658,0.0,0.0,1.5,,,,0.0,0.0,0.9185314188204726,0.0,0.0,0.5814685811795274,0.5814685811795274,,,,,0.0,,0.0,0.0,0.0,0.6863961246864814,0.0,0.0,0.6863961246864814,0.6863961246864814,0.0,0.0,0.0,0.0,0.0,0.0,10447.921611972137,10447.921611972137,10447.921611972137,10447.921611972137,0,0,0,0,2.2,1.9500000000000002,,,,,,,,,,,,0,0.0,0.0,0.0,0.0,0.0
0.41997385025024414,0.40026330947875977,0.0,0.0,1.5,,,,0.0,0.0,0.921946480964891,0.0,0.0,0.578053519035109,0.578053519035109,,,,,0.0,,0.0,0.0,0.0,0.6830124288836645,0.0,0.0,0.6830124288836645,0.6830124288836645,0.0,0.0,0.0,0.0,0.0,0.0,10449.696272147392,10449.696272147392,10449.696272147392,10449.696272147392,0,0,0,0,2.2,1.9500000000000002,,,,,,,,,,,,0,0.0,0.0,0.0,0.0,0.0
0.42522549629211426,0.4055149555206299,0.0,0.0,1.5,,,,0.0,0.0,0.9253446537656899,0.0,0.0,0.5746553462343101,0.5746553462343101,,,,,0.0,,0.0,0.0,0.0,0.679634560159789,0.0,0.0,0.679634560159789,0.679634560159789,0.0,0.0,0.0,0.0,0.0,0.0,10449.696272147392,10449.696272147392,10449.696272147392,10449.696272147392,0,0,0,0,2.2,1.9500000000000002,,,,,,,,,,,,0,0.0,0.0,0.0,0.0,0.0
0.43017053604125977,0.4104599952697754,0.0,0.0,1.5,,,,0.0,0.0,0.9287259713358379,0.0,0.0,0.5712740286641621,0.5712740286641621,,,,,0.0,,0.0,0.0,0.0,0.676263514029598,0.0,0.0,0.676263514029598,0.676263514029598,0.0,0.0,0.0,0.0,0.0,0.0,10451.53836280144,10451.53836280144,10451.53836280144,10451.53836280144,0,0,0,0,2.2,1.9500000000000002,,,,,,,,,,,,0,0.0,0.0,0.0,0.0,0.0
0.4351537227630615,0.41544318199157715,0.0,0.0,1.5,,,,0.0,0.0,0.9320904646227687,0.0,0.0,0.5679095353772313,0.5679095353772313,,,,,0.0,,0.0,0.0,0.0,0.6728986573861571,0.0,0.0,0.6728986573861571,0.6728986573861571,0.0,0.0,0.0,0.0,0.0,0.0,10451.53836280144,10451.53836280144,10451.53836280144,10451.53836280144,0,0,0,0,2.2,1.9500000000000002,,,,,,,,,,,,0,0.0,0.0,0.0,0.0,0.0
0.44016313552856445,0.4204525947570801,0.0,0.0,1.5,,,,0.0,0.0,0.9354381696459443,0.0,0.0,0.5645618303540557,0.5645618303540557,,,,,0.0,,0.0,0.0,0.0,0.6695410046351165,0.0,0.0,0.6695410046351165,0.6695410046351165,0.0,0.0,0.0,0.0,0.0,0.0,10453.44433023751,10453.44433023751,10453.44433023751,10453.44433023751,0,0,0,0,2.2,1.9500000000000002,,,,,,,,,,,,0,0.0,0.0,0.0,0.0,0.0
0.44516873359680176,0.4254581928253174,0.0,0.0,1.5,,,,0.0,0.0,0.9387691190777061,0.0,0.0,0.5612308809222939,0.5612308809222939,,,,,0.0,,0.0,0.0,0.0,0.666189886352369,0.0,0.0,0.666189886352369,0.666189886352369,0.0,0.0,0.0,0.0,0.0,0.0,10453.44433023751,10453.44433023751,10453.44433023751,10453.44433023751,0,0,0,0,2.2,1.9500000000000002,,,,,,,,,,,,0,0.0,0.0,0.0,0.0,0.0
0.45000600814819336,0.430295467376709,0.0,0.0,1.5,,,,0.0,0.0,0.9420833507510128,0.0,0.0,0.5579166492489872,0.5579166492489872,,,,,0.0,,0.0,0.0,0.0,0.662846334661343,0.0,0.0,0.662846334661343,0.662846334661343,0.0,0.0,0.0,0.0,0.0,0.0,10455.410744442044,10455.410744442044,10455.410744442044,10455.410744442044,0,0,0,0,2.2,1.9500000000000002,,,,,,,,,,,,0,0.0,0.0,0.0,0.0,0.0
0.4551870822906494,0.43547654151916504,0.0,0.0,1.5,,,,0.0,0.0,0.9453808989789544,0.0,0.0,0.5546191010210456,0.5546191010210456,,,,,0.0,,0.0,0.0,0.0,0.6595096455883211,0.0,0.0,0.6595096455883211,0.6595096455883211,0.0,0.0,0.0,0.0,0.0,0.0,10455.410744442044,10455.410744442044,10455.410744442044,10455.410744442044,0,0,0,0,2.2,1.9500000000000002,,,,,,,,,,,,0,0.0,0.0,0.0,0.0,0.0
0.4599800109863281,0.44026947021484375,0.0,0.0,1.5,,,,0.0,0.0,0.9486618033181737,0.0,0.0,0.5513381966818263,0.5513381966818263,,,,,0.0,,0.0,0.0,0.0,0.65618086784387,0.0,0.0,0.65618086784387,0.65618086784387,0.0,0.0,0.0,0.0,0.0,0.0,10457.434295372734,10457.434295372734,10457.434295372734,10457.434295372734,0,0,0,0,2.2,1.9500000000000002,,,,,,,,,,,,0,0.0,0.0,0.0,0.0,0.0
0.46519899368286133,0.44548845291137695,0.0,0.0,1.5,,,,0.0,0.0,0.951926099641231,0.0,0.0,0.548073900358769,0.548073900358769,,,,,0.0,,0.0,0.0,0.0,0.6528592646114592,0.0,0.0,0.6528592646114592,0.6528592646114592,0.0,0.0,0.0,0.0,0.0,0.0,10457.434295372734,10457.434295372734,10457.434295372734,10457.434295372734,0,0,0,0,2.2,1.9500000000000002,,,,,,,,,,,,0,0.0,0.0,0.0,0.0,0.0
0.47012877464294434,0.45041823387145996,0.0,0.0,1.5,,,,0.0,0.0,0.9551738291417273,0.0,0.0,0.5448261708582727,0.5448261708582727,,,,,0.0,,0.0,0.0,0.0,0.6495459000992796,0.0,0.0,0.6495459000992796,0.6495459000992796,0.0,0.0,0.0,0.0,0.0,0.0,10459.511789342143,10459.511789342143,10459.511789342143,10459.511789342143,0,0,0,0,2.2,1.9500000000000002,,,,,,,,,,,,0,0.0,0.0,0.0,0.0,0.0
0.475128173828125,0.4554176330566406,0.0,0.0,1.5,,,,0.0,0.0,0.9584050291732069,0.0,0.0,0.5415949708267931,0.5415949708267931,,,,,0.0,,0.0,0.0,0.0,0.6462400062959173,0.0,0.0,0.6462400062959173,0.6462400062959173,0.0,0.0,0.0,0.0,0.0,0.0,10459.511789342143,10459.511789342143,10459.511789342143,10459.511789342143,0,0,0,0,2.2,1.9500000000000002,,,,,,,,,,,,0,0.0,0.0,0.0,0.0,0.0
0.4801621437072754,0.460451602935791,0.0,0.0,1.5,,,,0.0,0.0,0.9616197424824943,0.0,0.0,0.5383802575175057,0.5383802575175057,,,,,0.0,,0.0,0.0,0.0,0.6429426618574786,0.0,0.0,0.6429426618574786,0.6429426618574786,0.0,0.0,0.0,0.0,0.0,0.0,10461.64014549529,10461.64014549529,10461.64014549529,10461.64014549529,0,0,0,0,2.2,1.9500000000000002,,,,,,,,,,,,0,0.0,0.0,0.0,0.0,0.0
0.4850029945373535,0.46529245376586914,0.0,0.0,1.5,,,,0.0,0.0,0.964818007828337,0.0,0.0,0.535181992171663,0.535181992171663,,,,,0.0,,0.0,0.0,0.0,0.6396530691685661,0.0,0.0,0.6396530691685661,0.6396530691685661,0.0,0.0,0.0,0.0,0.0,0.0,10461.64014549529,10461.64014549529,10461.64014549529,10461.64014549529,0,0,0,0,2.2,1.9500000000000002,,,,,,,,,,,,0,0.0,0.0,0.0,0.0,0.0
0.49018096923828125,0.4704704284667969,0.0,0.0,1.5,,,,0.0,0.0,0.9679998694299471,0.0,0.0,0.5320001305700529,0.5320001305700529,,,,,0.0,,0.0,0.0,0.0,0.6363723203220193,0.0,0.0,0.6363723203220193,0.6363723203220193,0.0,0.0,0.0,0.0,0.0,0.0,10463.816392379531,10463.816392379531,10463.816392379531,10463.816392379531,0,0,0,0,2.2,1.9500000000000002,,,,,,,,,,,,0,0.0,0.0,0.0,0.0,0.0
0.49515748023986816,0.4754469394683838,0.0,0.0,1.5,,,,0.0,0.0,0.9711653673781176,0.0,0.0,0.5288346326218824,0.5288346326218824,,,,,0.0,,0.0,0.0,0.0,0.6330995896341125,0.0,0.0,0.6330995896341125,0.6330995896341125,0.0,0.0,0.0,0.0,0.0,0.0,10463.816392379531,10463.816392379531,10463.816392379531,10463.816392379531,0,0,0,0,2.2,1.9500000000000002,,,,,,,,,,,,0,0.0,0.0,0.0,0.0,0.0
0.4999876022338867,0.48027706146240234,0.0,0.0,1.5,,,,0.0,0.0,0.9743145472864203,0.0,0.0,0.5256854527135797,0.5256854527135797,,,,,0.0,,0.0,0.0,0.0,0.6298359816605227,0.0,0.0,0.6298359816605227,0.6298359816605227,0.0,0.0,0.0,0.0,0.0,0.0,10466.037664605037,10466.037664605037,10466.037664605037,10466.037664605037,0,0,0,0,2.2,1.9500000000000002,,,,,,,,,,,,0,0.0,0.0,0.0,0.0,0.0
0.5050435066223145,0.4853329658508301,0.0,0.0,1.5,,,,0.0,0.0,0.977447450507077,0.0,0.0,0.522552549492923,0.522552549492923,,,,,0.0,,0.0,0.0,0.0,0.6265806441313365,0.0,0.0,0.6265806441313365,0.6265806441313365,0.0,0.0,0.0,0.0,0.0,0.0,10466.037664605037,10466.037664605037,10466.037664605037,10466.037664605037,0,0,0,0,2.2,1.9500000000000002,,,,,,,,,,,,0,0.0,0.0,0.0,0.0,0.0
0.5100765228271484,0.49036598205566406,0.0,0.0,1.5,,,,0.0,0.0,0.9805641239727133,0.0,0.0,0.5194358760272867,0.5194358760272867,,,,,0.0,,0.0,0.0,0.0,0.6233346931272582,0.0,0.0,0.6233346931272582,0.6233346931272582,0.0,0.0,0.0,0.0,0.0,0.0,10468.301199594242,10468.301199594242,10468.301199594242,10468.301199594242,0,0,0,0,2.2,1.9500000000000002,,,,,,,,,,,,0,0.0,0.0,0.0,0.0,0.0
0.5151808261871338,0.4954702854156494,0.0,0.0,1.5,,,,0.0,0.0,0.9836646102288258,0.0,0.0,0.5163353897711742,0.5163353897711742,,,,,0.0,,0.0,0.0,0.0,0.6200972512224895,0.0,0.0,0.6200972512224895,0.6200972512224895,0.0,0.0,0.0,0.0,0.0,0.0,10468.301199594242,10468.301199594242,10468.301199594242,10468.301199594242,0,0,0,0,2.2,1.9500000000000002,,,,,,,,,,,,0,0.0,0.0,0.0,0.0,0.0
0.520045280456543,0.5003347396850586,0.0,0.0,1.5,,,,0.0,0.0,0.9867489574544251,0.0,0.0,0.5132510425455749,0.5132510425455749,,,,,0.0,,0.0,0.0,0.0,0.6168694451198738,0.0,0.0,0.6168694451198738,0.6168694451198738,0.0,0.0,0.0,0.0,0.0,0.0,10470.60433441847,10470.60433441847,10470.60433441847,10470.60433441847,0,0,0,0,2.2,1.9500000000000002,,,,,,,,,,,,0,0.0,0.0,0.0,0.0,0.0
0.5251584053039551,0.5054478645324707,0.0,0.0,1.5,,,,0.0,0.0,0.9898172093225143,0.0,0.0,0.5101827906774857,0.5101827906774857,,,,,0.0,,0.0,0.0,0.0,0.6136503736178206,0.0,0.0,0.6136503736178206,0.6136503736178206,0.0,0.0,0.0,0.0,0.0,0.0,10470.60433441847,10470.60433441847,10470.60433441847,10470.60433441847,0,0,0,0,2.2,1.9500000000000002,,,,,,,,,,,,0,0.0,0.0,0.0,0.0,0.0
0.5301632881164551,0.5104527473449707,0.0,0.0,1.5,,,,0.0,0.0,0.9928694151883753,0.0,0.0,0.5071305848116247,0.5071305848116247,,,,,0.0,,0.0,0.0,0.0,0.6104411731722189,0.0,0.0,0.6104411731722189,0.6104411731722189,0.0,0.0,0.0,0.0,0.0,0.0,10472.944502720047,10472.944502720047,10472.944502720047,10472.944502720047,0,0,0,0,2.2,1.9500000000000002,,,,,,,,,,,,0,0.0,0.0,0.0,0.0,0.0
0.5351412296295166,0.5154306888580322,0.0,0.0,1.5,,,,0.0,0.0,0.9959056197890611,0.0,0.0,0.5040943802109389,0.5040943802109389,,,,,0.0,,0.0,0.0,0.0,0.6072409201371454,0.0,0.0,0.6072409201371454,0.6072409201371454,0.0,0.0,0.0,0.0,0.0,0.0,10472.944502720047,10472.944502720047,10472.944502720047,10472.944502720047,0,0,0,0,2.2,1.9500000000000002,,,,,,,,,,,,0,0.0,0.0,0.0,0.0,0.0
0.5399413108825684,0.520230770111084,0.0,0.0,1.5,,,,0.0,0.0,0.9989258735884868,0.0,0.0,0.5010741264115132,0.5010741264115132,,,,,0.0,,0.0,0.0,0.0,0.6040507598851435,0.0,0.0,0.6040507598851435,0.6040507598851435,0.0,0.0,0.0,0.0,0.0,0.0,10475.319231718186,10475.319231718186,10475.319231718186,10475.319231718186,0,0,0,0,2.2,1.9500000000000002,,,,,,,,,,,,0,0.0,0.0,0.0,0.0,0.0
0.545159101486206,0.5254485607147217,0.0,0.0,1.5,,,,0.0,0.0,1.0019302223265385,0.0,0.0,0.4980697776734615,0.4980697776734615,,,,,0.0,,0.0,0.0,0.0,0.6008697476103136,0.0,0.0,0.6008697476103136,0.6008697476103136,0.0,0.0,0.0,0.0,0.0,0.0,10475.319231718186,10475.319231718186,10475.319231718186,10475.319231718186,0,0,0,0,2.2,1.9500000000000002,,,,,,,,,,,,0,0.0,0.0,0.0,0.0,0.0
0.5499868392944336,0.5302762985229492,0.0,0.0,1.5,,,,0.0,0.0,1.004918717510524,0.0,0.0,0.4950812824894759,0.4950812824894759,,,,,0.0,,0.0,0.0,0.0,0.5976990367971056,0.0,0.0,0.5976990367971056,0.5976990367971056,0.0,0.0,0.0,0.0,0.0,0.0,10477.726139296894,10477.726139296894,10477.726139296894,10477.726139296894,0,0,0,0,2.2,1.9500000000000002,,,,,,,,,,,,0,0.0,0.0,0.0,0.0,0.0
0.555161714553833,0.5354511737823486,0.0,0.0,1.5,,,,0.0,0.0,1.007891405824116,0.0,0.0,0.49210859417588404,0.49210859417588404,,,,,0.0,,0.0,0.0,0.0,0.5945376627183813,0.0,0.0,0.5945376627183813,0.5945376627183813,0.0,0.0,0.0,0.0,0.0,0.0,10477.726139296894,10477.726139296894,10477.726139296894,10477.726139296894,0,0,0,0,2.2,1.9500000000000002,,,,,,,,,,,,0,0.0,0.0,0.0,0.0,0.0
0.5601904392242432,0.5404798984527588,0.0,0.0,1.5,,,,0.0,0.0,1.0108483397550978,0.0,0.0,0.4891516602449022,0.4891516602449022,,,,,0.0,,0.0,0.0,0.0,0.5913867861963664,0.0,0.0,0.5913867861963664,0.5913867861963664,0.0,0.0,0.0,0.0,0.0,0.0,10480.162931173141,10480.162931173141,10480.162931173141,10480.162931173141,0,0,0,0,2.2,1.9500000000000002,,,,,,,,,,,,0,0.0,0.0,0.0,0.0,0.0
0.5651547908782959,0.5454442501068115,0.0,0.0,1.5,,,,0.0,0.0,1.013789566873984,0.0,0.0,0.486210433126016,0.486210433126016,,,,,0.0,,0.0,0.0,0.0,0.5882454237772413,0.0,0.0,0.5882454237772413,0.5882454237772413,0.0,0.0,0.0,0.0,0.0,0.0,10480.162931173141,10480.162931173141,10480.162931173141,10480.162931173141,0,0,0,0,2.2,1.9500000000000002,,,,,,,,,,,,0,0.0,0.0,0.0,0.0,0.0
0.5700092315673828,0.5502986907958984,0.0,0.0,1.5,,,,0.0,0.0,1.0167151405883665,0.0,0.0,0.48328485941163346,0.48328485941163346,,,,,0.0,,0.0,0.0,0.0,0.5851147428765017,0.0,0.0,0.5851147428765017,0.5851147428765017,0.0,0.0,0.0,0.0,0.0,0.0,10482.62739814362,10482.62739814362,10482.62739814362,10482.62739814362,0,0,0,0,2.2,1.9500000000000002,,,,,,,,,,,,0,0.0,0.0,0.0,0.0,0.0
0.5751707553863525,0.5554602146148682,0.0,0.0,1.5,,,,0.0,0.0,1.0196251093006936,0.0,0.0,0.4803748906993064,0.4803748906993064,,,,,0.0,,0.0,0.0,0.0,0.5819937424654174,0.0,0.0,0.5819937424654174,0.5819937424654174,0.0,0.0,0.0,0.0,0.0,0.0,10482.62739814362,10482.62739814362,10482.62739814362,10482.62739814362,0,0,0,0,2.2,1.9500000000000002,,,,,,,,,,,,0,0.0,0.0,0.0,0.0,0.0
0.5800089836120605,0.5602984428405762,0.0,0.0,1.5,,,,0.0,0.0,1.0225195272798782,0.0,0.0,0.47748047272012184,0.47748047272012184,,,,,0.0,,0.0,0.0,0.0,0.5788835958369092,0.0,0.0,0.5788835958369092,0.5788835958369092,0.0,0.0,0.0,0.0,0.0,0.0,10485.117413408292,10485.117413408292,10485.117413408292,10485.117413408292,0,0,0,0,2.2,1.9500000000000002,,,,,,,,,,,,0,0.0,0.0,0.0,0.0,0.0
0.5849957466125488,0.5652852058410645,0.0,0.0,1.5,,,,0.0,0.0,1.0253984437073664,0.0,0.0,0.47460155629263356,0.47460155629263356,,,,,0.0,,0.0,0.0,0.0,0.5757832854976752,0.0,0.0,0.5757832854976752,0.5757832854976752,0.0,0.0,0.0,0.0,0.0,0.0,10485.117413408292,10485.117413408292,10485.117413408292,10485.117413408292,0,0,0,0,2.2,1.9500000000000002,,,,,,,,,,,,0,0.0,0.0,0.0,0.0,0.0
0.5900743007659912,0.5703637599945068,0.0,0.0,1.5,,,,0.0,0.0,1.0282619136570161,0.0,0.0,0.47173808634298386,0.47173808634298386,,,,,0.0,,0.0,0.0,0.0,0.5726939899299442,0.0,0.0,0.5726939899299442,0.5726939899299442,0.0,0.0,0.0,0.0,0.0,0.0,10487.630929969077,10487.630929969077,10487.630929969077,10487.630929969077,0,0,0,0,2.2,1.9500000000000002,,,,,,,,,,,,0,0.0,0.0,0.0,0.0,0.0
0.5950572490692139,0.5753467082977295,0.0,0.0,1.5,,,,0.0,0.0,1.0311099870382465,0.0,0.0,0.4688900129617535,0.4688900129617535,,,,,0.0,,0.0,0.0,0.0,0.5696146762460605,0.0,0.0,0.5696146762460605,0.5696146762460605,0.0,0.0,0.0,0.0,0.0,0.0,10487.630929969077,10487.630929969077,10487.630929969077,10487.630929969077,0,0,0,0,2.2,1.9500000000000002,,,,,,,,,,,,0,0.0,0.0,0.0,0.0,0.0
0.5999877452850342,0.5802772045135498,0.0,0.0,1.5,,,,0.0,0.0,1.0339427196755278,0.0,0.0,0.46605728032447225,0.46605728032447225,,,,,0.0,,0.0,0.0,0.0,0.5665465274562679,0.0,0.0,0.5665465274562679,0.5665465274562679,0.0,0.0,0.0,0.0,0.0,0.0,10490.165978101928,10490.165978101928,10490.165978101928,10490.165978101928,0,0,0,0,2.2,1.9500000000000002,,,,,,,,,,,,0,0.0,0.0,0.0,0.0,0.0
0.6051859855651855,0.5854754447937012,0.0,0.0,1.5,,,,0.0,0.0,1.0367601621570774,0.0,0.0,0.46323983784292255,0.46323983784292255,,,,,0.0,,0.0,0.0,0.0,0.5634884963099257,0.0,0.0,0.5634884963099257,0.5634884963099257,0.0,0.0,0.0,0.0,0.0,0.0,10490.165978101928,10490.165978101928,10490.165978101928,10490.165978101928,0,0,0,0,2.2,1.9500000000000002,,,,,,,,,,,,0,0.0,0.0,0.0,0.0,0.0
0.610060453414917,0.5903499126434326,0.0,0.0,1.5,,,,0.0,0.0,1.0395623710056272,0.0,0.0,0.4604376289943728,0.4604376289943728,,,,,0.0,,0.0,0.0,0.0,0.5604417697099476,0.0,0.0,0.5604417697099476,0.5604417697099476,0.0,0.0,0.0,0.0,0.0,0.0,10492.720662900623,10492.720662900623,10492.720662900623,10492.720662900623,0,0,0,0,2.2,1.9500000000000002,,,,,,,,,,,,0,0.0,0.0,0.0,0.0,0.0
0.6151578426361084,0.595447301864624,0.0,0.0,1.5,,,,0.0,0.0,1.0423493974408096,0.0,0.0,0.45765060255919043,0.45765060255919043,,,,,0.0,,0.0,0.0,0.0,0.5574052870364621,0.0,0.0,0.5574052870364621,0.5574052870364621,0.0,0.0,0.0,0.0,0.0,0.0,10492.720662900623,10492.720662900623,10492.720662900623,10492.720662900623,0,0,0,0,2.2,1.9500000000000002,,,,,,,,,,,,0,0.0,0.0,0.0,0.0,0.0
0.619962215423584,0.6002516746520996,0.0,0.0,1.5,,,,0.0,0.0,1.0451212986331837,0.0,0.0,0.4548787013668163,0.4548787013668163,,,,,0.0,,0.0,0.0,0.0,0.5543802384748066,0.0,0.0,0.5543802384748066,0.5543802384748066,0.0,0.0,0.0,0.0,0.0,0.0,10495.293161890599,10495.293161890599,10495.293161890599,10495.293161890599,0,0,0,0,2.2,1.9500000000000002,,,,,,,,,,,,0,0.0,0.0,0.0,0.0,0.0
0.6250588893890381,0.6053483486175537,0.0,0.0,1.5,,,,0.0,0.0,1.0478781263881498,0.0,0.0,0.4521218736118502,0.4521218736118502,,,,,0.0,,0.0,0.0,0.0,0.5513655509932129,0.0,0.0,0.5513655509932129,0.5513655509932129,0.0,0.0,0.0,0.0,0.0,0.0,10495.293161890599,10495.293161890599,10495.293161890599,10495.293161890599,0,0,0,0,2.2,1.9500000000000002,,,,,,,,,,,,0,0.0,0.0,0.0,0.0,0.0
0.6300563812255859,0.6103458404541016,0.0,0.0,1.5,,,,0.0,0.0,1.0506199384755173,0.0,0.0,0.44938006152448273,0.44938006152448273,,,,,0.0,,0.0,0.0,0.0,0.5483624174734734,0.0,0.0,0.5483624174734734,0.5483624174734734,0.0,0.0,0.0,0.0,0.0,0.0,10497.881722711114,10497.881722711114,10497.881722711114,10497.881722711114,0,0,0,0,2.2,1.9500000000000002,,,,,,,,,,,,0,0.0,0.0,0.0,0.0,0.0
0.6350898742675781,0.6153793334960938,0.0,0.0,1.5,,,,0.0,0.0,1.0533467872424873,0.0,0.0,0.4466532127575127,0.4466532127575127,,,,,0.0,,0.0,0.0,0.0,0.5453697533939983,0.0,0.0,0.5453697533939983,0.5453697533939983,0.0,0.0,0.0,0.0,0.0,0.0,10497.881722711114,10497.881722711114,10497.881722711114,10497.881722711114,0,0,0,0,2.2,1.9500000000000002,,,,,,,,,,,,0,0.0,0.0,0.0,0.0,0.0
0.6401681900024414,0.620457649230957,0.0,0.0,1.5,,,,0.0,0.0,1.05605873101134,0.0,0.0,0.44394126898865993,0.44394126898865993,,,,,0.0,,0.0,0.0,0.0,0.5423887537705447,0.0,0.0,0.5423887537705447,0.5423887537705447,0.0,0.0,0.0,0.0,0.0,0.0,10500.484660864186,10500.484660864186,10500.484660864186,10500.484660864186,0,0,0,0,2.2,1.9500000000000002,,,,,,,,,,,,0,0.0,0.0,0.0,0.0,0.0
0.6452076435089111,0.6254971027374268,0.0,0.0,1.5,,,,0.0,0.0,1.0587558226287384,0.0,0.0,0.44124417737126165,0.44124417737126165,,,,,0.0,,0.0,0.0,0.0,0.5394183234796417,0.0,0.0,0.5394183234796417,0.5394183234796417,0.0,0.0,0.0,0.0,0.0,0.0,10500.484660864186,10500.484660864186,10500.484660864186,10500.484660864186,0,0,0,0,2.2,1.9500000000000002,,,,,,,,,,,,0,0.0,0.0,0.0,0.0,0.0
0.6499879360198975,0.6302773952484131,0.0,0.0,1.5,,,,0.0,0.0,1.0614381209243946,0.0,0.0,0.4385618790756054,0.4385618790756054,,,,,0.0,,0.0,0.0,0.0,0.5364596591312295,0.0,0.0,0.5364596591312295,0.5364596591312295,0.0,0.0,0.0,0.0,0.0,0.0,10503.100357528605,10503.100357528605,10503.100357528605,10503.100357528605,0,0,0,0,2.2,1.9500000000000002,,,,,,,,,,,,0,0.0,0.0,0.0,0.0,0.0
0.6551566123962402,0.6354460716247559,0.0,0.0,1.5,,,,0.0,0.0,1.064105679203669,0.0,0.0,0.43589432079633106,0.43589432079633106,,,,,0.0,,0.0,0.0,0.0,0.5335116558548508,0.0,0.0,0.5335116558548508,0.5335116558548508,0.0,0.0,0.0,0.0,0.0,0.0,10503.100357528605,10503.100357528605,10503.100357528605,10503.100357528605,0,0,0,0,2.2,1.9500000000000002,,,,,,,,,,,,0,0.0,0.0,0.0,0.0,0.0
0.6600370407104492,0.6403264999389648,0.0,0.0,1.5,,,,0.0,0.0,1.066758556760353,0.0,0.0,0.433241443239647,0.433241443239647,,,,,0.0,,0.0,0.0,0.0,0.5305755113368069,0.0,0.0,0.5305755113368069,0.5305755113368069,0.0,0.0,0.0,0.0,0.0,0.0,10505.727257437436,10505.727257437436,10505.727257437436,10505.727257437436,0,0,0,0,2.2,1.9500000000000002,,,,,,,,,,,,0,0.0,0.0,0.0,0.0,0.0
0.665153980255127,0.6454434394836426,0.0,0.0,1.5,,,,0.0,0.0,1.069396807319266,0.0,0.0,0.4306031926807341,0.4306031926807341,,,,,0.0,,0.0,0.0,0.0,0.527650111782562,0.0,0.0,0.527650111782562,0.527650111782562,0.0,0.0,0.0,0.0,0.0,0.0,10505.727257437436,10505.727257437436,10505.727257437436,10505.727257437436,0,0,0,0,2.2,1.9500000000000002,,,,,,,,,,,,0,0.0,0.0,0.0,0.0,0.0
0.6699912548065186,0.6502807140350342,0.0,0.0,1.5,,,,0.0,0.0,1.072020490596557,0.0,0.0,0.4279795094034431,0.4279795094034431,,,,,0.0,,0.0,0.0,0.0,0.5247366554581906,0.0,0.0,0.5247366554581906,0.5247366554581906,0.0,0.0,0.0,0.0,0.0,0.0,10508.363866817464,10508.363866817464,10508.363866817464,10508.363866817464,0,0,0,0,2.2,1.9500000000000002,,,,,,,,,,,,0,0.0,0.0,0.0,0.0,0.0
0.6751744747161865,0.6554639339447021,0.0,0.0,1.5,,,,0.0,0.0,1.074629660698742,0.0,0.0,0.425370339301258,0.425370339301258,,,,,0.0,,0.0,0.0,0.0,0.5218340204370243,0.0,0.0,0.5218340204370243,0.5218340204370243,0.0,0.0,0.0,0.0,0.0,0.0,10508.363866817464,10508.363866817464,10508.363866817464,10508.363866817464,0,0,0,0,2.2,1.9500000000000002,,,,,,,,,,,,0,0.0,0.0,0.0,0.0,0.0
0.6800529956817627,0.6603424549102783,0.0,0.0,1.5,,,,0.0,0.0,1.0772243777241863,0.0,0.0,0.42277562227581367,0.42277562227581367,,,,,0.0,,0.0,0.0,0.0,0.5189434050888547,0.0,0.0,0.5189434050888547,0.5189434050888547,0.0,0.0,0.0,0.0,0.0,0.0,10511.008751388992,10511.008751388992,10511.008751388992,10511.008751388992,0,0,0,0,2.2,1.9500000000000002,,,,,,,,,,,,0,0.0,0.0,0.0,0.0,0.0
0.6850876808166504,0.665377140045166,0.0,0.0,1.5,,,,0.0,0.0,1.0798046961247707,0.0,0.0,0.4201953038752293,0.4201953038752293,,,,,0.0,,0.0,0.0,0.0,0.5160636801168581,0.0,0.0,0.5160636801168581,0.5160636801168581,0.0,0.0,0.0,0.0,0.0,0.0,10511.008751388992,10511.008751388992,10511.008751388992,10511.008751388992,0,0,0,0,2.2,1.9500000000000002,,,,,,,,,,,,0,0.0,0.0,0.0,0.0,0.0
0.6901626586914062,0.6704521179199219,0.0,0.0,1.5,,,,0.0,0.0,1.0823706763424623,0.0,0.0,0.4176293236575377,0.4176293236575377,,,,,0.0,,0.0,0.0,0.0,0.5131960435383396,0.0,0.0,0.5131960435383396,0.5131960435383396,0.0,0.0,0.0,0.0,0.0,0.0,10513.660534424434,10513.660534424434,10513.660534424434,10513.660534424434,0,0,0,0,2.2,1.9500000000000002,,,,,,,,,,,,0,0.0,0.0,0.0,0.0,0.0
0.6952219009399414,0.675511360168457,0.0,0.0,1.5,,,,0.0,0.0,1.0849223731395587,0.0,0.0,0.41507762686044125,0.41507762686044125,,,,,0.0,,0.0,0.0,0.0,0.510339359419292,0.0,0.0,0.510339359419292,0.510339359419292,0.0,0.0,0.0,0.0,0.0,0.0,10513.660534424434,10513.660534424434,10513.660534424434,10513.660534424434,0,0,0,0,2.2,1.9500000000000002,,,,,,,,,,,,0,0.0,0.0,0.0,0.0,0.0
0.6999478340148926,0.6802372932434082,0.0,0.0,1.5,,,,0.0,0.0,1.0874598472644963,0.0,0.0,0.4125401527355037,0.4125401527355037,,,,,0.0,,0.0,0.0,0.0,0.5074948249875223,0.0,0.0,0.5074948249875223,0.5074948249875223,0.0,0.0,0.0,0.0,0.0,0.0,10516.31789486429,10516.31789486429,10516.31789486429,10516.31789486429,0,0,0,0,2.2,1.9500000000000002,,,,,,,,,,,,0,0.0,0.0,0.0,0.0,0.0
0.705129861831665,0.6854193210601807,0.0,0.0,1.5,,,,0.0,0.0,1.08998315375638,0.0,0.0,0.41001684624362,0.41001684624362,,,,,0.0,,0.0,0.0,0.0,0.5046612983767418,0.0,0.0,0.5046612983767418,0.5046612983767418,0.0,0.0,0.0,0.0,0.0,0.0,10516.31789486429,10516.31789486429,10516.31789486429,10516.31789486429,0,0,0,0,2.2,1.9500000000000002,,,,,,,,,,,,0,0.0,0.0,0.0,0.0,0.0
0.7101602554321289,0.6904497146606445,0.0,0.0,1.5,,,,0.0,0.0,1.092492353634414,0.0,0.0,0.407507646365586,0.407507646365586,,,,,0.0,,0.0,0.0,0.0,0.5018399756068013,0.0,0.0,0.5018399756068013,0.5018399756068013,0.0,0.0,0.0,0.0,0.0,0.0,10518.979565488891,10518.979565488891,10518.979565488891,10518.979565488891,0,0,0,0,2.2,1.9500000000000002,,,,,,,,,,,,0,0.0,0.0,0.0,0.0,0.0
0.7151932716369629,0.6954827308654785,0.0,0.0,1.5,,,,0.0,0.0,1.0949875021821984,0.0,0.0,0.4050124978178016,0.4050124978178016,,,,,0.0,,0.0,0.0,0.0,0.4990297095568672,0.0,0.0,0.4990297095568672,0.4990297095568672,0.0,0.0,0.0,0.0,0.0,0.0,10518.979565488891,10518.979565488891,10518.979565488891,10518.979565488891,0,0,0,0,2.2,1.9500000000000002,,,,,,,,,,,,0,0.0,0.0,0.0,0.0,0.0
0.7200186252593994,0.700308084487915,0.0,0.0,1.5,,,,0.0,0.0,1.09746866065539,0.0,0.0,0.40253133934460994,0.40253133934460994,,,,,0.0,,0.0,0.0,0.0,0.4962316946383104,0.0,0.0,0.4962316946383104,0.4962316946383104,0.0,0.0,0.0,0.0,0.0,0.0,10521.644331144567,10521.644331144567,10521.644331144567,10521.644331144567,0,0,0,0,2.2,1.9500000000000002,,,,,,,,,,,,0,0.0,0.0,0.0,0.0,0.0
0.7252540588378906,0.7055435180664062,0.0,0.0,1.5,,,,0.0,0.0,1.099935884551026,0.0,0.0,0.4000641154489739,0.4000641154489739,,,,,0.0,,0.0,0.0,0.0,0.4934447791272033,0.0,0.0,0.4934447791272033,0.4934447791272033,0.0,0.0,0.0,0.0,0.0,0.0,10521.644331144567,10521.644331144567,10521.644331144567,10521.644331144567,0,0,0,0,2.2,1.9500000000000002,,,,,,,,,,,,0,0.0,0.0,0.0,0.0,0.0
0.7301936149597168,0.7104830741882324,0.0,0.0,1.5,,,,0.0,0.0,1.1023892353282423,0.0,0.0,0.3976107646717577,0.3976107646717577,,,,,0.0,,0.0,0.0,0.0,0.49067015544324766,0.0,0.0,0.49067015544324766,0.49067015544324766,0.0,0.0,0.0,0.0,0.0,0.0,10524.31102702273,10524.31102702273,10524.31102702273,10524.31102702273,0,0,0,0,2.2,1.9500000000000002,,,,,,,,,,,,0,0.0,0.0,0.0,0.0,0.0
0.7351212501525879,0.7154107093811035,0.0,0.0,1.5,,,,0.0,0.0,1.1048287686676694,0.0,0.0,0.39517123133233056,0.39517123133233056,,,,,0.0,,0.0,0.0,0.0,0.4879066678854372,0.0,0.0,0.4879066678854372,0.4879066678854372,0.0,0.0,0.0,0.0,0.0,0.0,10524.31102702273,10524.31102702273,10524.31102702273,10524.31102702273,0,0,0,0,2.2,1.9500000000000002,,,,,,,,,,,,0,0.0,0.0,0.0,0.0,0.0
0.7400965690612793,0.7203860282897949,0.0,0.0,1.5,,,,0.0,0.0,1.1072545462002463,0.0,0.0,0.3927454537997537,0.3927454537997537,,,,,0.0,,0.0,0.0,0.0,0.48515550651536943,0.0,0.0,0.48515550651536943,0.48515550651536943,0.0,0.0,0.0,0.0,0.0,0.0,10526.97853699053,10526.97853699053,10526.97853699053,10526.97853699053,0,0,0,0,2.2,1.9500000000000002,,,,,,,,,,,,0,0.0,0.0,0.0,0.0,0.0
0.7451756000518799,0.7254650592803955,0.0,0.0,1.5,,,,0.0,0.0,1.1096666237615282,0.0,0.0,0.39033337623847175,0.39033337623847175,,,,,0.0,,0.0,0.0,0.0,0.48241551225636503,0.0,0.0,0.48241551225636503,0.48241551225636503,0.0,0.0,0.0,0.0,0.0,0.0,10526.97853699053,10526.97853699053,10526.97853699053,10526.97853699053,0,0,0,0,2.2,1.9500000000000002,,,,,,,,,,,,0,0.0,0.0,0.0,0.0,0.0
0.750112771987915,0.7304022312164307,0.0,0.0,1.5,,,,0.0,0.0,1.1120650631238367,0.0,0.0,0.3879349368761633,0.3879349368761633,,,,,0.0,,0.0,0.0,0.0,0.4796878724616731,0.0,0.0,0.4796878724616731,0.4796878724616731,0.0,0.0,0.0,0.0,0.0,0.0,10529.645791971656,10529.645791971656,10529.645791971656,10529.645791971656,0,0,0,0,2.2,1.9500000000000002,,,,,,,,,,,,0,0.0,0.0,0.0,0.0,0.0
0.755112886428833,0.7354023456573486,0.0,0.0,1.5,,,,0.0,0.0,1.1144499202501195,0.0,0.0,0.38555007974988054,0.38555007974988054,,,,,0.0,,0.0,0.0,0.0,0.47697142525653735,0.0,0.0,0.47697142525653735,0.47697142525653735,0.0,0.0,0.0,0.0,0.0,0.0,10529.645791971656,10529.645791971656,10529.645791971656,10529.645791971656,0,0,0,0,2.2,1.9500000000000002,,,,,,,,,,,,0,0.0,0.0,0.0,0.0,0.0
0.7601680755615234,0.7404575347900391,0.0,0.0,1.5,,,,0.0,0.0,1.1168212570248757,0.0,0.0,0.38317874297512433,0.38317874297512433,,,,,0.0,,0.0,0.0,0.0,0.47426735495125943,0.0,0.0,0.47426735495125943,0.47426735495125943,0.0,0.0,0.0,0.0,0.0,0.0,10532.31176837596,10532.31176837596,10532.31176837596,10532.31176837596,0,0,0,0,2.2,1.9500000000000002,,,,,,,,,,,,0,0.0,0.0,0.0,0.0,0.0
0.7651557922363281,0.7454452514648438,0.0,0.0,1.5,,,,0.0,0.0,1.1191791295120135,0.0,0.0,0.3808208704879865,0.3808208704879865,,,,,0.0,,0.0,0.0,0.0,0.4715744974275688,0.0,0.0,0.4715744974275688,0.4715744974275688,0.0,0.0,0.0,0.0,0.0,0.0,10532.31176837596,10532.31176837596,10532.31176837596,10532.31176837596,0,0,0,0,2.2,1.9500000000000002,,,,,,,,,,,,0,0.0,0.0,0.0,0.0,0.0
0.7699997425079346,0.7502892017364502,0.0,0.0,1.5,,,,0.0,0.0,1.1215235996801802,0.0,0.0,0.3784764003198198,0.3784764003198198,,,,,0.0,,0.0,0.0,0.0,0.4688940336333379,0.0,0.0,0.4688940336333379,0.4688940336333379,0.0,0.0,0.0,0.0,0.0,0.0,10534.975486576575,10534.975486576575,10534.975486576575,10534.975486576575,0,0,0,0,2.2,1.9500000000000002,,,,,,,,,,,,0,0.0,0.0,0.0,0.0,0.0
0.7752408981323242,0.7555303573608398,0.0,0.0,1.5,,,,0.0,0.0,1.1238547236688756,0.0,0.0,0.3761452763311244,0.3761452763311244,,,,,0.0,,0.0,0.0,0.0,0.46622479773906284,0.0,0.0,0.46622479773906284,0.46622479773906284,0.0,0.0,0.0,0.0,0.0,0.0,10534.975486576575,10534.975486576575,10534.975486576575,10534.975486576575,0,0,0,0,2.2,1.9500000000000002,,,,,,,,,,,,0,0.0,0.0,0.0,0.0,0.0
0.7800347805023193,0.760324239730835,0.0,0.0,1.5,,,,0.0,0.0,1.126172563504002,0.0,0.0,0.3738274364959979,0.3738274364959979,,,,,0.0,,0.0,0.0,0.0,0.4635679670253103,0.0,0.0,0.4635679670253103,0.4635679670253103,0.0,0.0,0.0,0.0,0.0,0.0,10537.636009433238,10537.636009433238,10537.636009433238,10537.636009433238,0,0,0,0,2.2,1.9500000000000002,,,,,,,,,,,,0,0.0,0.0,0.0,0.0,0.0
0.7850511074066162,0.7653405666351318,0.0,0.0,1.5,,,,0.0,0.0,1.1284771753763125,0.0,0.0,0.37152282462368746,0.37152282462368746,,,,,0.0,,0.0,0.0,0.0,0.46092237446207124,0.0,0.0,0.46092237446207124,0.46092237446207124,0.0,0.0,0.0,0.0,0.0,0.0,10537.636009433238,10537.636009433238,10537.636009433238,10537.636009433238,0,0,0,0,2.2,1.9500000000000002,,,,,,,,,,,,0,0.0,0.0,0.0,0.0,0.0
