recording_time_s,mission_time_s,goal_x,goal_y,goal_z,reference_x,reference_y,reference_z,actual_x,actual_y,actual_z,goal_error_x,goal_error_y,goal_error_z,goal_position_error,tracking_error_x,tracking_error_y,tracking_error_z,tracking_error,goal_yaw,reference_yaw,yaw_error,body_velocity_x,body_velocity_y,body_velocity_z,map_velocity_x,map_velocity_y,map_velocity_z,speed,roll,pitch,yaw,angular_speed_x,angular_speed_y,angular_speed_z,commanded_motor_rpm_m1,commanded_motor_rpm_m2,commanded_motor_rpm_m3,commanded_motor_rpm_m4,horizontal_saturated,altitude_saturated,attitude_saturated,mixer_saturated,raw_obstacle_distance,safety_clearance,mission_waypoint_index,mission_complete,mission_success,navigation_goal_index,navigation_visited_goals,navigation_complete,navigation_success,interactive_ready,interactive_active,interactive_goal_count,collision_state,external_wrench_active,external_force_x,external_force_y,external_force_z,integral_compensation_x,integral_compensation_y
0.0,,,,,,,,0.0,0.0,0.5716308560634574,,,,,,,,,,,,0.0,0.0,0.9650639323351987,0.0,0.0,0.9650639323351987,0.9650639323351987,0.0,0.0,0.0,0.0,0.0,0.0,,,,,,,,,2.2,1.9500000000000002,,,,,,,,,,,,,0.0,0.0,0.0,,
0.0049991607666015625,,,,,,,,0.0,0.0,0.5764432130704293,,,,,,,,,,,,0.0,0.0,0.9624714013943921,0.0,0.0,0.9624714013943921,0.9624714013943921,0.0,0.0,0.0,0.0,0.0,0.0,10486.9597264498,10486.9597264498,10486.9597264498,10486.9597264498,0,0,0,0,2.2,1.9500000000000002,,,,,,,,,,,,,0.0,0.0,0.0,0.0,0.0
0.010078907012939453,,,,,,,,0.0,0.0,0.5812424083905959,,,,,,,,,,,,0.0,0.0,0.9598390640333152,0.0,0.0,0.9598390640333152,0.9598390640333152,0.0,0.0,0.0,0.0,0.0,0.0,10486.9597264498,10486.9597264498,10486.9597264498,10486.9597264498,0,0,0,0,2.2,1.9500000000000002,,,,,,,,,,,,,0.0,0.0,0.0,0.0,0.0
0.015023946762084961,,,,,,,,0.0,0.0,0.5860282620778384,,,,,,,,,,,,0.0,0.0,0.9571707374484972,0.0,0.0,0.9571707374484972,0.9571707374484972,0.0,0.0,0.0,0.0,0.0,0.0,10486.9597264498,10486.9597264498,10486.9597264498,10486.9597264498,0,0,0,0,2.2,1.9500000000000002,,,,,,,,,,,,,0.0,0.0,0.0,0.0,0.0
0.020025014877319336,,,,,,,,0.0,0.0,0.5908005862580443,,,,,,,,,,,,0.0,0.0,0.9544648360411744,0.0,0.0,0.9544648360411744,0.9544648360411744,0.0,0.0,0.0,0.0,0.0,0.0,10480.955617828342,10480.955617828342,10480.955617828342,10480.955617828342,0,0,0,0,2.2,1.9500000000000002,,,,,,,,,,,,0,0.0,0.0,0.0,0.0,0.0
0.02501058578491211,,,,,,,,0.0,0.0,0.5955592110745928,,,,,,,,,,,,0.0,0.0,0.9517249633096787,0.0,0.0,0.9517249633096787,0.9517249633096787,0.0,0.0,0.0,0.0,0.0,0.0,10480.955617828342,10480.955617828342,10480.955617828342,10480.955617828342,0,0,0,0,2.2,1.9500000000000002,,,,,,,,,,,,0,0.0,0.0,0.0,0.0,0.0
0.030001401901245117,0.0010221004486083984,0.0,0.0,1.5,,,,0.0,0.0,0.6003039594126803,0.0,0.0,0.8996960405873197,0.8996960405873197,,,,,0.0,,0.0,0.0,0.0,0.9489496676175179,0.0,0.0,0.9489496676175179,0.9489496676175179,0.0,0.0,0.0,0.0,0.0,0.0,10475.337117637893,10475.337117637893,10475.337117637893,10475.337117637893,0,0,0,0,2.2,1.9500000000000002,,,,,,,,,,,,0,0.0,0.0,0.0,0.0,0.0
0.035002946853637695,0.0060236454010009766,0.0,0.0,1.5,,,,0.0,0.0,0.6050346711450563,0.0,0.0,0.8949653288549437,0.8949653288549437,,,,,0.0,,0.0,0.0,0.0,0.9461423464751771,0.0,0.0,0.9461423464751771,0.9461423464751771,0.0,0.0,0.0,0.0,0.0,0.0,10475.337117637893,10475.337117637893,10475.337117637893,10475.337117637893,0,0,0,0,2.2,1.9500000000000002,,,,,,,,,,,,0,0.0,0.0,0.0,0.0,0.0
0.0400083065032959,0.01102900505065918,0.0,0.0,1.5,,,,0.0,0.0,0.6097511795299743,0.0,0.0,0.8902488204700257,0.8902488204700257,,,,,0.0,,0.0,0.0,0.0,0.9433016769835922,0.0,0.0,0.9433016769835922,0.9433016769835922,0.0,0.0,0.0,0.0,0.0,0.0,10470.09049617347,10470.09049617347,10470.09049617347,10470.09049617347,0,0,0,0,2.2,1.9500000000000002,,,,,,,,,,,,0,0.0,0.0,0.0,0.0,0.0
0.04503345489501953,0.016054153442382812,0.0,0.0,1.5,,,,0.0,0.0,0.6144533338206232,0.0,0.0,0.8855466661793768,0.8855466661793768,,,,,0.0,,0.0,0.0,0.0,0.9404308581297919,0.0,0.0,0.9404308581297919,0.9404308581297919,0.0,0.0,0.0,0.0,0.0,0.0,10470.09049617347,10470.09049617347,10470.09049617347,10470.09049617347,0,0,0,0,2.2,1.9500000000000002,,,,,,,,,,,,0,0.0,0.0,0.0,0.0,0.0
0.05003213882446289,0.021052837371826172,0.0,0.0,1.5,,,,0.0,0.0,0.6191409772741522,0.0,0.0,0.8808590227258478,0.8808590227258478,,,,,0.0,,0.0,0.0,0.0,0.9375286907057913,0.0,0.0,0.9375286907057913,0.9375286907057913,0.0,0.0,0.0,0.0,0.0,0.0,10465.202416240201,10465.202416240201,10465.202416240201,10465.202416240201,0,0,0,0,2.2,1.9500000000000002,,,,,,,,,,,,0,0.0,0.0,0.0,0.0,0.0
0.05500984191894531,0.026030540466308594,0.0,0.0,1.5,,,,0.0,0.0,0.6238139681861552,0.0,0.0,0.8761860318138448,0.8761860318138448,,,,,0.0,,0.0,0.0,0.0,0.9345981824006097,0.0,0.0,0.9345981824006097,0.9345981824006097,0.0,0.0,0.0,0.0,0.0,0.0,10465.202416240201,10465.202416240201,10465.202416240201,10465.202416240201,0,0,0,0,2.2,1.9500000000000002,,,,,,,,,,,,0,0.0,0.0,0.0,0.0,0.0
0.06001019477844238,0.031030893325805664,0.0,0.0,1.5,,,,0.0,0.0,0.6284721594502719,0.0,0.0,0.8715278405497281,0.8715278405497281,,,,,0.0,,0.0,0.0,0.0,0.9316382528233452,0.0,0.0,0.9316382528233452,0.9316382528233452,0.0,0.0,0.0,0.0,0.0,0.0,10460.659925093116,10460.659925093116,10460.659925093116,10460.659925093116,0,0,0,0,2.2,1.9500000000000002,,,,,,,,,,,,0,0.0,0.0,0.0,0.0,0.0
0.06499838829040527,0.036019086837768555,0.0,0.0,1.5,,,,0.0,0.0,0.633115418077064,0.0,0.0,0.866884581922936,0.866884581922936,,,,,0.0,,0.0,0.0,0.0,0.9286517253584146,0.0,0.0,0.9286517253584146,0.9286517253584146,0.0,0.0,0.0,0.0,0.0,0.0,10460.659925093116,10460.659925093116,10460.659925093116,10460.659925093116,0,0,0,0,2.2,1.9500000000000002,,,,,,,,,,,,0,0.0,0.0,0.0,0.0,0.0
0.07000565528869629,0.04102635383605957,0.0,0.0,1.5,,,,0.0,0.0,0.6377436062456863,0.0,0.0,0.8622563937543137,0.8622563937543137,,,,,0.0,,0.0,0.0,0.0,0.9256376337244587,0.0,0.0,0.9256376337244587,0.9256376337244587,0.0,0.0,0.0,0.0,0.0,0.0,10456.450446342256,10456.450446342256,10456.450446342256,10456.450446342256,0,0,0,0,2.2,1.9500000000000002,,,,,,,,,,,,0,0.0,0.0,0.0,0.0,0.0
0.07501602172851562,0.046036720275878906,0.0,0.0,1.5,,,,0.0,0.0,0.6423565993645335,0.0,0.0,0.8576434006354665,0.8576434006354665,,,,,0.0,,0.0,0.0,0.0,0.9225986237694376,0.0,0.0,0.9225986237694376,0.9225986237694376,0.0,0.0,0.0,0.0,0.0,0.0,10456.450446342256,10456.450446342256,10456.450446342256,10456.450446342256,0,0,0,0,2.2,1.9500000000000002,,,,,,,,,,,,0,0.0,0.0,0.0,0.0,0.0
0.08005118370056152,0.051071882247924805,0.0,0.0,1.5,,,,0.0,0.0,0.6469542685584074,0.0,0.0,0.8530457314415926,0.8530457314415926,,,,,0.0,,0.0,0.0,0.0,0.9195338387747886,0.0,0.0,0.9195338387747886,0.9195338387747886,0.0,0.0,0.0,0.0,0.0,0.0,10452.561771842751,10452.561771842751,10452.561771842751,10452.561771842751,0,0,0,0,2.2,1.9500000000000002,,,,,,,,,,,,0,0.0,0.0,0.0,0.0,0.0
0.08505082130432129,0.05607151985168457,0.0,0.0,1.5,,,,0.0,0.0,0.6515364973264152,0.0,0.0,0.8484635026735848,0.8484635026735848,,,,,0.0,,0.0,0.0,0.0,0.9164457536015433,0.0,0.0,0.9164457536015433,0.9164457536015433,0.0,0.0,0.0,0.0,0.0,0.0,10452.561771842751,10452.561771842751,10452.561771842751,10452.561771842751,0,0,0,0,2.2,1.9500000000000002,,,,,,,,,,,,0,0.0,0.0,0.0,0.0,0.0
0.09000134468078613,0.061022043228149414,0.0,0.0,1.5,,,,0.0,0.0,0.6561031654099279,0.0,0.0,0.8438968345900721,0.8438968345900721,,,,,0.0,,0.0,0.0,0.0,0.9133336167025388,0.0,0.0,0.9133336167025388,0.9133336167025388,0.0,0.0,0.0,0.0,0.0,0.0,10448.982053587475,10448.982053587475,10448.982053587475,10448.982053587475,0,0,0,0,2.2,1.9500000000000002,,,,,,,,,,,,0,0.0,0.0,0.0,0.0,0.0
0.09509825706481934,0.06611895561218262,0.0,0.0,1.5,,,,0.0,0.0,0.6606541641013743,0.0,0.0,0.8393458358986257,0.8393458358986257,,,,,0.0,,0.0,0.0,0.0,0.9101997382892926,0.0,0.0,0.9101997382892926,0.9101997382892926,0.0,0.0,0.0,0.0,0.0,0.0,10448.982053587475,10448.982053587475,10448.982053587475,10448.982053587475,0,0,0,0,2.2,1.9500000000000002,,,,,,,,,,,,0,0.0,0.0,0.0,0.0,0.0
0.10002946853637695,0.07105016708374023,0.0,0.0,1.5,,,,0.0,0.0,0.6651893814400981,0.0,0.0,0.8348106185599019,0.8348106185599019,,,,,0.0,,0.0,0.0,0.0,0.9070434677447571,0.0,0.0,0.9070434677447571,0.9070434677447571,0.0,0.0,0.0,0.0,0.0,0.0,10445.69979561823,10445.69979561823,10445.69979561823,10445.69979561823,0,0,0,0,2.2,1.9500000000000002,,,,,,,,,,,,0,0.0,0.0,0.0,0.0,0.0
0.10506415367126465,0.07608485221862793,0.0,0.0,1.5,,,,0.0,0.0,0.669708716223911,0.0,0.0,0.830291283776089,0.830291283776089,,,,,0.0,,0.0,0.0,0.0,0.9038669567625917,0.0,0.0,0.9038669567625917,0.9038669567625917,0.0,0.0,0.0,0.0,0.0,0.0,10445.69979561823,10445.69979561823,10445.69979561823,10445.69979561823,0,0,0,0,2.2,1.9500000000000002,,,,,,,,,,,,0,0.0,0.0,0.0,0.0,0.0
0.11001157760620117,0.08103227615356445,0.0,0.0,1.5,,,,0.0,0.0,0.6742120644817093,0.0,0.0,0.8257879355182907,0.8257879355182907,,,,,0.0,,0.0,0.0,0.0,0.9006696515596518,0.0,0.0,0.9006696515596518,0.9006696515596518,0.0,0.0,0.0,0.0,0.0,0.0,10442.703845969649,10442.703845969649,10442.703845969649,10442.703845969649,0,0,0,0,2.2,1.9500000000000002,,,,,,,,,,,,0,0.0,0.0,0.0,0.0,0.0
0.11499786376953125,0.08601856231689453,0.0,0.0,1.5,,,,0.0,0.0,0.6786993322379286,0.0,0.0,0.8213006677620714,0.8213006677620714,,,,,0.0,,0.0,0.0,0.0,0.8974535512438409,0.0,0.0,0.8974535512438409,0.8974535512438409,0.0,0.0,0.0,0.0,0.0,0.0,10442.703845969649,10442.703845969649,10442.703845969649,10442.703845969649,0,0,0,0,2.2,1.9500000000000002,,,,,,,,,,,,0,0.0,0.0,0.0,0.0,0.0
0.12006497383117676,0.09108567237854004,0.0,0.0,1.5,,,,0.0,0.0,0.6831704232124781,0.0,0.0,0.8168295767875219,0.8168295767875219,,,,,0.0,,0.0,0.0,0.0,0.8942181949099222,0.0,0.0,0.8942181949099222,0.8942181949099222,0.0,0.0,0.0,0.0,0.0,0.0,10439.983388658666,10439.983388658666,10439.983388658666,10439.983388658666,0,0,0,0,2.2,1.9500000000000002,,,,,,,,,,,,0,0.0,0.0,0.0,0.0,0.0
0.1250319480895996,0.09605264663696289,0.0,0.0,1.5,,,,0.0,0.0,0.6876252503865713,0.0,0.0,0.8123747496134287,0.8123747496134287,,,,,0.0,,0.0,0.0,0.0,0.8909654348186444,0.0,0.0,0.8909654348186444,0.8909654348186444,0.0,0.0,0.0,0.0,0.0,0.0,10439.983388658666,10439.983388658666,10439.983388658666,10439.983388658666,0,0,0,0,2.2,1.9500000000000002,,,,,,,,,,,,0,0.0,0.0,0.0,0.0,0.0
0.13004422187805176,0.10106492042541504,0.0,0.0,1.5,,,,0.0,0.0,0.6920637248821824,0.0,0.0,0.8079362751178176,0.8079362751178176,,,,,0.0,,0.0,0.0,0.0,0.8876948991222215,0.0,0.0,0.8876948991222215,0.8876948991222215,0.0,0.0,0.0,0.0,0.0,0.0,10437.527935731037,10437.527935731037,10437.527935731037,10437.527935731037,0,0,0,0,2.2,1.9500000000000002,,,,,,,,,,,,0,0.0,0.0,0.0,0.0,0.0
0.13503193855285645,0.10605263710021973,0.0,0.0,1.5,,,,0.0,0.0,0.6964857663761086,0.0,0.0,0.8035142336238914,0.8035142336238914,,,,,0.0,,0.0,0.0,0.0,0.8844082987852466,0.0,0.0,0.8844082987852466,0.8844082987852466,0.0,0.0,0.0,0.0,0.0,0.0,10437.527935731037,10437.527935731037,10437.527935731037,10437.527935731037,0,0,0,0,2.2,1.9500000000000002,,,,,,,,,,,,0,0.0,0.0,0.0,0.0,0.0
0.14007067680358887,0.11109137535095215,0.0,0.0,1.5,,,,0.0,0.0,0.7008912931127483,0.0,0.0,0.7991087068872517,0.7991087068872517,,,,,0.0,,0.0,0.0,0.0,0.8811053473279548,0.0,0.0,0.8811053473279548,0.8811053473279548,0.0,0.0,0.0,0.0,0.0,0.0,10435.327319375167,10435.327319375167,10435.327319375167,10435.327319375167,0,0,0,0,2.2,1.9500000000000002,,,,,,,,,,,,0,0.0,0.0,0.0,0.0,0.0
0.1450505256652832,0.11607122421264648,0.0,0.0,1.5,,,,0.0,0.0,0.7052802312116879,0.0,0.0,0.7947197687883121,0.7947197687883121,,,,,0.0,,0.0,0.0,0.0,0.8777876197879241,0.0,0.0,0.8777876197879241,0.8777876197879241,0.0,0.0,0.0,0.0,0.0,0.0,10433.371684112451,10433.371684112451,10433.371684112451,10433.371684112451,0,0,0,0,2.2,1.9500000000000002,,,,,,,,,,,,0,0.0,0.0,0.0,0.0,0.0
0.14999151229858398,0.12101221084594727,0.0,0.0,1.5,,,,0.0,0.0,0.7096525057691412,0.0,0.0,0.7903474942308588,0.7903474942308588,,,,,0.0,,0.0,0.0,0.0,0.8744549114906585,0.0,0.0,0.8744549114906585,0.8744549114906585,0.0,0.0,0.0,0.0,0.0,0.0,10433.371684112451,10433.371684112451,10433.371684112451,10433.371684112451,0,0,0,0,2.2,1.9500000000000002,,,,,,,,,,,,0,0.0,0.0,0.0,0.0,0.0
0.15516090393066406,0.12618160247802734,0.0,0.0,1.5,,,,0.0,0.0,0.7140080491028391,0.0,0.0,0.7859919508971609,0.7859919508971609,,,,,0.0,,0.0,0.0,0.0,0.8711086667395934,0.0,0.0,0.8711086667395934,0.8711086667395934,0.0,0.0,0.0,0.0,0.0,0.0,10433.371684112451,10433.371684112451,10433.371684112451,10433.371684112451,0,0,0,0,2.2,1.9500000000000002,,,,,,,,,,,,0,0.0,0.0,0.0,0.0,0.0
0.16006231307983398,0.13108301162719727,0.0,0.0,1.5,,,,0.0,0.0,0.7183467928989653,0.0,0.0,0.7816532071010347,0.7816532071010347,,,,,0.0,,0.0,0.0,0.0,0.8677487592252299,0.0,0.0,0.8677487592252299,0.8677487592252299,0.0,0.0,0.0,0.0,0.0,0.0,10431.651479072283,10431.651479072283,10431.651479072283,10431.651479072283,0,0,0,0,2.2,1.9500000000000002,,,,,,,,,,,,0,0.0,0.0,0.0,0.0,0.0
0.16503500938415527,0.13605570793151855,0.0,0.0,1.5,,,,0.0,0.0,0.7226686754366598,0.0,0.0,0.7773313245633402,0.7773313245633402,,,,,0.0,,0.0,0.0,0.0,0.8643765075389022,0.0,0.0,0.8643765075389022,0.8643765075389022,0.0,0.0,0.0,0.0,0.0,0.0,10430.157450359064,10430.157450359064,10430.157450359064,10430.157450359064,0,0,0,0,2.2,1.9500000000000002,,,,,,,,,,,,0,0.0,0.0,0.0,0.0,0.0
0.17005443572998047,0.14107513427734375,0.0,0.0,1.5,,,,0.0,0.0,0.7269736347387311,0.0,0.0,0.7730263652612689,0.7730263652612689,,,,,0.0,,0.0,0.0,0.0,0.8609918604142653,0.0,0.0,0.8609918604142653,0.8609918604142653,0.0,0.0,0.0,0.0,0.0,0.0,10430.157450359064,10430.157450359064,10430.157450359064,10430.157450359064,0,0,0,0,2.2,1.9500000000000002,,,,,,,,,,,,0,0.0,0.0,0.0,0.0,0.0
0.17517733573913574,0.14619803428649902,0.0,0.0,1.5,,,,0.0,0.0,0.7312616148166664,0.0,0.0,0.7687383851833336,0.7687383851833336,,,,,0.0,,0.0,0.0,0.0,0.8575960155870487,0.0,0.0,0.8575960155870487,0.8575960155870487,0.0,0.0,0.0,0.0,0.0,0.0,10430.157450359064,10430.157450359064,10430.157450359064,10430.157450359064,0,0,0,0,2.2,1.9500000000000002,,,,,,,,,,,,0,0.0,0.0,0.0,0.0,0.0
0.1800377368927002,0.15105843544006348,0.0,0.0,1.5,,,,0.0,0.0,0.7355325597848001,0.0,0.0,0.7644674402151999,0.7644674402151999,,,,,0.0,,0.0,0.0,0.0,0.854188993626738,0.0,0.0,0.854188993626738,0.854188993626738,0.0,0.0,0.0,0.0,0.0,0.0,10428.880633517536,10428.880633517536,10428.880633517536,10428.880633517536,0,0,0,0,2.2,1.9500000000000002,,,,,,,,,,,,0,0.0,0.0,0.0,0.0,0.0
0.18507885932922363,0.15609955787658691,0.0,0.0,1.5,,,,0.0,0.0,0.7397864191653478,0.0,0.0,0.7602135808346522,0.7602135808346522,,,,,0.0,,0.0,0.0,0.0,0.8507718761095444,0.0,0.0,0.8507718761095444,0.8507718761095444,0.0,0.0,0.0,0.0,0.0,0.0,10427.812346102251,10427.812346102251,10427.812346102251,10427.812346102251,0,0,0,0,2.2,1.9500000000000002,,,,,,,,,,,,0,0.0,0.0,0.0,0.0,0.0
0.19000244140625,0.16102313995361328,0.0,0.0,1.5,,,,0.0,0.0,0.7440231429270688,0.0,0.0,0.7559768570729312,0.7559768570729312,,,,,0.0,,0.0,0.0,0.0,0.847344752344203,0.0,0.0,0.847344752344203,0.847344752344203,0.0,0.0,0.0,0.0,0.0,0.0,10427.812346102251,10427.812346102251,10427.812346102251,10427.812346102251,0,0,0,0,2.2,1.9500000000000002,,,,,,,,,,,,0,0.0,0.0,0.0,0.0,0.0
0.19501161575317383,0.1660323143005371,0.0,0.0,1.5,,,,0.0,0.0,0.7482426858885092,0.0,0.0,0.7517573141114908,0.7517573141114908,,,,,0.0,,0.0,0.0,0.0,0.8439085922880754,0.0,0.0,0.8439085922880754,0.8439085922880754,0.0,0.0,0.0,0.0,0.0,0.0,10427.812346102251,10427.812346102251,10427.812346102251,10427.812346102251,0,0,0,0,2.2,1.9500000000000002,,,,,,,,,,,,0,0.0,0.0,0.0,0.0,0.0
0.200056791305542,0.17107748985290527,0.0,0.0,1.5,,,,0.0,0.0,0.7524450036435074,0.0,0.0,0.7475549963564926,0.7475549963564926,,,,,0.0,,0.0,0.0,0.0,0.8404635509996592,0.0,0.0,0.8404635509996592,0.8404635509996592,0.0,0.0,0.0,0.0,0.0,0.0,10426.944180356008,10426.944180356008,10426.944180356008,10426.944180356008,0,0,0,0,2.2,1.9500000000000002,,,,,,,,,,,,0,0.0,0.0,0.0,0.0,0.0
0.20513176918029785,0.17615246772766113,0.0,0.0,1.5,,,,0.0,0.0,0.7566300560995453,0.0,0.0,0.7433699439004547,0.7433699439004547,,,,,0.0,,0.0,0.0,0.0,0.8370104912075605,0.0,0.0,0.8370104912075605,0.8370104912075605,0.0,0.0,0.0,0.0,0.0,0.0,10426.944180356008,10426.944180356008,10426.944180356008,10426.944180356008,0,0,0,0,2.2,1.9500000000000002,,,,,,,,,,,,0,0.0,0.0,0.0,0.0,0.0
0.21022796630859375,0.18124866485595703,0.0,0.0,1.5,,,,0.0,0.0,0.7607978042537159,0.0,0.0,0.7392021957462841,0.7392021957462841,,,,,0.0,,0.0,0.0,0.0,0.8335496308341247,0.0,0.0,0.8335496308341247,0.8335496308341247,0.0,0.0,0.0,0.0,0.0,0.0,10426.267996001627,10426.267996001627,10426.267996001627,10426.267996001627,0,0,0,0,2.2,1.9500000000000002,,,,,,,,,,,,0,0.0,0.0,0.0,0.0,0.0
0.21516704559326172,0.186187744140625,0.0,0.0,1.5,,,,0.0,0.0,0.764948212901833,0.0,0.0,0.735051787098167,0.735051787098167,,,,,0.0,,0.0,0.0,0.0,0.8300817296234266,0.0,0.0,0.8300817296234266,0.8300817296234266,0.0,0.0,0.0,0.0,0.0,0.0,10425.775913150823,10425.775913150823,10425.775913150823,10425.775913150823,0,0,0,0,2.2,1.9500000000000002,,,,,,,,,,,,0,0.0,0.0,0.0,0.0,0.0
0.2200779914855957,0.19109869003295898,0.0,0.0,1.5,,,,0.0,0.0,0.7690812482297126,0.0,0.0,0.7309187517702874,0.7309187517702874,,,,,0.0,,0.0,0.0,0.0,0.8266070655759096,0.0,0.0,0.8266070655759096,0.8266070655759096,0.0,0.0,0.0,0.0,0.0,0.0,10425.775913150823,10425.775913150823,10425.775913150823,10425.775913150823,0,0,0,0,2.2,1.9500000000000002,,,,,,,,,,,,0,0.0,0.0,0.0,0.0,0.0
0.22521066665649414,0.19623136520385742,0.0,0.0,1.5,,,,0.0,0.0,0.7731968797274827,0.0,0.0,0.7268031202725173,0.7268031202725173,,,,,0.0,,0.0,0.0,0.0,0.8231262995540369,0.0,0.0,0.8231262995540369,0.8231262995540369,0.0,0.0,0.0,0.0,0.0,0.0,10425.460305333274,10425.460305333274,10425.460305333274,10425.460305333274,0,0,0,0,2.2,1.9500000000000002,,,,,,,,,,,,0,0.0,0.0,0.0,0.0,0.0
0.23001575469970703,0.2010364532470703,0.0,0.0,1.5,,,,0.0,0.0,0.7772950785622201,0.0,0.0,0.7227049214377799,0.7227049214377799,,,,,0.0,,0.0,0.0,0.0,0.8196397669474758,0.0,0.0,0.8196397669474758,0.8196397669474758,0.0,0.0,0.0,0.0,0.0,0.0,10425.460305333274,10425.460305333274,10425.460305333274,10425.460305333274,0,0,0,0,2.2,1.9500000000000002,,,,,,,,,,,,0,0.0,0.0,0.0,0.0,0.0
0.2350482940673828,0.2060689926147461,0.0,0.0,1.5,,,,0.0,0.0,0.7813758187307357,0.0,0.0,0.7186241812692643,0.7186241812692643,,,,,0.0,,0.0,0.0,0.0,0.8161480337031227,0.0,0.0,0.8161480337031227,0.8161480337031227,0.0,0.0,0.0,0.0,0.0,0.0,10425.460305333274,10425.460305333274,10425.460305333274,10425.460305333274,0,0,0,0,2.2,1.9500000000000002,,,,,,,,,,,,0,0.0,0.0,0.0,0.0,0.0
0.24006295204162598,0.21108365058898926,0.0,0.0,1.5,,,,0.0,0.0,0.7854390761807591,0.0,0.0,0.7145609238192409,0.7145609238192409,,,,,0.0,,0.0,0.0,0.0,0.8126514900046893,0.0,0.0,0.8126514900046893,0.8126514900046893,0.0,0.0,0.0,0.0,0.0,0.0,10425.313792648614,10425.313792648614,10425.313792648614,10425.313792648614,0,0,0,0,2.2,1.9500000000000002,,,,,,,,,,,,0,0.0,0.0,0.0,0.0,0.0
0.24514484405517578,0.21616554260253906,0.0,0.0,1.5,,,,0.0,0.0,0.789484829234344,0.0,0.0,0.710515170765656,0.710515170765656,,,,,0.0,,0.0,0.0,0.0,0.8091506107169727,0.0,0.0,0.8091506107169727,0.8091506107169727,0.0,0.0,0.0,0.0,0.0,0.0,10425.329235043562,10425.329235043562,10425.329235043562,10425.329235043562,0,0,0,0,2.2,1.9500000000000002,,,,,,,,,,,,0,0.0,0.0,0.0,0.0,0.0
0.25007081031799316,0.22109150886535645,0.0,0.0,1.5,,,,0.0,0.0,0.7935130584259099,0.0,0.0,0.7064869415740901,0.7064869415740901,,,,,0.0,,0.0,0.0,0.0,0.8056458383131696,0.0,0.0,0.8056458383131696,0.8056458383131696,0.0,0.0,0.0,0.0,0.0,0.0,10425.329235043562,10425.329235043562,10425.329235043562,10425.329235043562,0,0,0,0,2.2,1.9500000000000002,,,,,,,,,,,,0,0.0,0.0,0.0,0.0,0.0
0.2550508975982666,0.22607159614562988,0.0,0.0,1.5,,,,0.0,0.0,0.7975237462273151,0.0,0.0,0.7024762537726849,0.7024762537726849,,,,,0.0,,0.0,0.0,0.0,0.8021375602810363,0.0,0.0,0.8021375602810363,0.8021375602810363,0.0,0.0,0.0,0.0,0.0,0.0,10425.329235043562,10425.329235043562,10425.329235043562,10425.329235043562,0,0,0,0,2.2,1.9500000000000002,,,,,,,,,,,,0,0.0,0.0,0.0,0.0,0.0
0.260084867477417,0.23110556602478027,0.0,0.0,1.5,,,,0.0,0.0,0.8015168775721468,0.0,0.0,0.6984831224278532,0.6984831224278532,,,,,0.0,,0.0,0.0,0.0,0.7986262689663426,0.0,0.0,0.7986262689663426,0.7986262689663426,0.0,0.0,0.0,0.0,0.0,0.0,10425.49972571593,10425.49972571593,10425.49972571593,10425.49972571593,0,0,0,0,2.2,1.9500000000000002,,,,,,,,,,,,0,0.0,0.0,0.0,0.0,0.0
0.26512885093688965,0.23614954948425293,0.0,0.0,1.5,,,,0.0,0.0,0.8054924389124494,0.0,0.0,0.6945075610875506,0.6945075610875506,,,,,0.0,,0.0,0.0,0.0,0.795112268060497,0.0,0.0,0.795112268060497,0.795112268060497,0.0,0.0,0.0,0.0,0.0,0.0,10425.818584646953,10425.818584646953,10425.818584646953,10425.818584646953,0,0,0,0,2.2,1.9500000000000002,,,,,,,,,,,,0,0.0,0.0,0.0,0.0,0.0
0.27000927925109863,0.24102997779846191,0.0,0.0,1.5,,,,0.0,0.0,0.8094504193996979,0.0,0.0,0.6905495806003021,0.6905495806003021,,,,,0.0,,0.0,0.0,0.0,0.7915960974497028,0.0,0.0,0.7915960974497028,0.7915960974497028,0.0,0.0,0.0,0.0,0.0,0.0,10425.818584646953,10425.818584646953,10425.818584646953,10425.818584646953,0,0,0,0,2.2,1.9500000000000002,,,,,,,,,,,,0,0.0,0.0,0.0,0.0,0.0
0.2750551700592041,0.24607586860656738,0.0,0.0,1.5,,,,0.0,0.0,0.8133908093021442,0.0,0.0,0.6866091906978558,0.6866091906978558,,,,,0.0,,0.0,0.0,0.0,0.7880779804892688,0.0,0.0,0.7880779804892688,0.7880779804892688,0.0,0.0,0.0,0.0,0.0,0.0,10426.279352262962,10426.279352262962,10426.279352262962,10426.279352262962,0,0,0,0,2.2,1.9500000000000002,,,,,,,,,,,,0,0.0,0.0,0.0,0.0,0.0
0.2800722122192383,0.25109291076660156,0.0,0.0,1.5,,,,0.0,0.0,0.8173136018139227,0.0,0.0,0.6826863981860773,0.6826863981860773,,,,,0.0,,0.0,0.0,0.0,0.7845585023556858,0.0,0.0,0.7845585023556858,0.7845585023556858,0.0,0.0,0.0,0.0,0.0,0.0,10426.279352262962,10426.279352262962,10426.279352262962,10426.279352262962,0,0,0,0,2.2,1.9500000000000002,,,,,,,,,,,,0,0.0,0.0,0.0,0.0,0.0
0.28507566452026367,0.25609636306762695,0.0,0.0,1.5,,,,0.0,0.0,0.8212187908609815,0.0,0.0,0.6787812091390185,0.6787812091390185,,,,,0.0,,0.0,0.0,0.0,0.7810378094117665,0.0,0.0,0.7810378094117665,0.7810378094117665,0.0,0.0,0.0,0.0,0.0,0.0,10426.875783227093,10426.875783227093,10426.875783227093,10426.875783227093,0,0,0,0,2.2,1.9500000000000002,,,,,,,,,,,,0,0.0,0.0,0.0,0.0,0.0
0.29004693031311035,0.26106762886047363,0.0,0.0,1.5,,,,0.0,0.0,0.8251063735107488,0.0,0.0,0.6748936264892512,0.6748936264892512,,,,,0.0,,0.0,0.0,0.0,0.7775165299534482,0.0,0.0,0.7775165299534482,0.7775165299534482,0.0,0.0,0.0,0.0,0.0,0.0,10426.875783227093,10426.875783227093,10426.875783227093,10426.875783227093,0,0,0,0,2.2,1.9500000000000002,,,,,,,,,,,,0,0.0,0.0,0.0,0.0,0.0
0.2950420379638672,0.26606273651123047,0.0,0.0,1.5,,,,0.0,0.0,0.8289763471936572,0.0,0.0,0.6710236528063428,0.6710236528063428,,,,,0.0,,0.0,0.0,0.0,0.7739947365816934,0.0,0.0,0.7739947365816934,0.7739947365816934,0.0,0.0,0.0,0.0,0.0,0.0,10426.875783227093,10426.875783227093,10426.875783227093,10426.875783227093,0,0,0,0,2.2,1.9500000000000002,,,,,,,,,,,,0,0.0,0.0,0.0,0.0,0.0
0.3000752925872803,0.27109599113464355,0.0,0.0,1.5,,,,0.0,0.0,0.832828712686746,0.0,0.0,0.667171287313254,0.667171287313254,,,,,0.0,,0.0,0.0,0.0,0.7704730986177496,0.0,0.0,0.7704730986177496,0.7704730986177496,0.0,0.0,0.0,0.0,0.0,0.0,10427.601840361458,10427.601840361458,10427.601840361458,10427.601840361458,0,0,0,0,2.2,1.9500000000000002,,,,,,,,,,,,0,0.0,0.0,0.0,0.0,0.0
0.3050713539123535,0.2760920524597168,0.0,0.0,1.5,,,,0.0,0.0,0.8366634707768559,0.0,0.0,0.6633365292231441,0.6633365292231441,,,,,0.0,,0.0,0.0,0.0,0.7669516180219895,0.0,0.0,0.7669516180219895,0.7669516180219895,0.0,0.0,0.0,0.0,0.0,0.0,10427.601840361458,10427.601840361458,10427.601840361458,10427.601840361458,0,0,0,0,2.2,1.9500000000000002,,,,,,,,,,,,0,0.0,0.0,0.0,0.0,0.0
0.3099997043609619,0.2810204029083252,0.0,0.0,1.5,,,,0.0,0.0,0.840480625792461,0.0,0.0,0.659519374207539,0.659519374207539,,,,,0.0,,0.0,0.0,0.0,0.7634310031210247,0.0,0.0,0.7634310031210247,0.7634310031210247,0.0,0.0,0.0,0.0,0.0,0.0,10428.451688699894,10428.451688699894,10428.451688699894,10428.451688699894,0,0,0,0,2.2,1.9500000000000002,,,,,,,,,,,,0,0.0,0.0,0.0,0.0,0.0
0.3150475025177002,0.2860682010650635,0.0,0.0,1.5,,,,0.0,0.0,0.8442801817337109,0.0,0.0,0.6557198182662891,0.6557198182662891,,,,,0.0,,0.0,0.0,0.0,0.7599111882499766,0.0,0.0,0.7599111882499766,0.7599111882499766,0.0,0.0,0.0,0.0,0.0,0.0,10428.451688699894,10428.451688699894,10428.451688699894,10428.451688699894,0,0,0,0,2.2,1.9500000000000002,,,,,,,,,,,,0,0.0,0.0,0.0,0.0,0.0
0.3200702667236328,0.2910909652709961,0.0,0.0,1.5,,,,0.0,0.0,0.8480621463276741,0.0,0.0,0.6519378536723259,0.6519378536723259,,,,,0.0,,0.0,0.0,0.0,0.7563929187926316,0.0,0.0,0.7563929187926316,0.7563929187926316,0.0,0.0,0.0,0.0,0.0,0.0,10429.419689671156,10429.419689671156,10429.419689671156,10429.419689671156,0,0,0,0,2.2,1.9500000000000002,,,,,,,,,,,,0,0.0,0.0,0.0,0.0,0.0
0.325120210647583,0.2961409091949463,0.0,0.0,1.5,,,,0.0,0.0,0.8518265266495323,0.0,0.0,0.6481734733504677,0.6481734733504677,,,,,0.0,,0.0,0.0,0.0,0.7528760643716336,0.0,0.0,0.7528760643716336,0.7528760643716336,0.0,0.0,0.0,0.0,0.0,0.0,10429.419689671156,10429.419689671156,10429.419689671156,10429.419689671156,0,0,0,0,2.2,1.9500000000000002,,,,,,,,,,,,0,0.0,0.0,0.0,0.0,0.0
0.3301517963409424,0.30117249488830566,0.0,0.0,1.5,,,,0.0,0.0,0.8555733336772781,0.0,0.0,0.6444266663227219,0.6444266663227219,,,,,0.0,,0.0,0.0,0.0,0.7493614055491589,0.0,0.0,0.7493614055491589,0.7493614055491589,0.0,0.0,0.0,0.0,0.0,0.0,10430.500395412231,10430.500395412231,10430.500395412231,10430.500395412231,0,0,0,0,2.2,1.9500000000000002,,,,,,,,,,,,0,0.0,0.0,0.0,0.0,0.0
0.3350086212158203,0.3060293197631836,0.0,0.0,1.5,,,,0.0,0.0,0.8593025774275223,0.0,0.0,0.6406974225724777,0.6406974225724777,,,,,0.0,,0.0,0.0,0.0,0.7458487500488364,0.0,0.0,0.7458487500488364,0.7458487500488364,0.0,0.0,0.0,0.0,0.0,0.0,10430.500395412231,10430.500395412231,10430.500395412231,10430.500395412231,0,0,0,0,2.2,1.9500000000000002,,,,,,,,,,,,0,0.0,0.0,0.0,0.0,0.0
0.34015321731567383,0.3111739158630371,0.0,0.0,1.5,,,,0.0,0.0,0.8630142719865201,0.0,0.0,0.6369857280134799,0.6369857280134799,,,,,0.0,,0.0,0.0,0.0,0.7423389117995746,0.0,0.0,0.7423389117995746,0.7423389117995746,0.0,0.0,0.0,0.0,0.0,0.0,10431.688543211156,10431.688543211156,10431.688543211156,10431.688543211156,0,0,0,0,2.2,1.9500000000000002,,,,,,,,,,,,0,0.0,0.0,0.0,0.0,0.0
0.34503769874572754,0.3160583972930908,0.0,0.0,1.5,,,,0.0,0.0,0.8667084301832366,0.0,0.0,0.6332915698167634,0.6332915698167634,,,,,0.0,,0.0,0.0,0.0,0.738831639343292,0.0,0.0,0.738831639343292,0.738831639343292,0.0,0.0,0.0,0.0,0.0,0.0,10431.688543211156,10431.688543211156,10431.688543211156,10431.688543211156,0,0,0,0,2.2,1.9500000000000002,,,,,,,,,,,,0,0.0,0.0,0.0,0.0,0.0
0.3500046730041504,0.32102537155151367,0.0,0.0,1.5,,,,0.0,0.0,0.8703850690743811,0.0,0.0,0.6296149309256189,0.6296149309256189,,,,,0.0,,0.0,0.0,0.0,0.7353277782288956,0.0,0.0,0.7353277782288956,0.7353277782288956,0.0,0.0,0.0,0.0,0.0,0.0,10432.979050078604,10432.979050078604,10432.979050078604,10432.979050078604,0,0,0,0,2.2,1.9500000000000002,,,,,,,,,,,,0,0.0,0.0,0.0,0.0,0.0
0.3549931049346924,0.32601380348205566,0.0,0.0,1.5,,,,0.0,0.0,0.874044204176585,0.0,0.0,0.625955795823415,0.625955795823415,,,,,0.0,,0.0,0.0,0.0,0.731827020440798,0.0,0.0,0.731827020440798,0.731827020440798,0.0,0.0,0.0,0.0,0.0,0.0,10432.979050078604,10432.979050078604,10432.979050078604,10432.979050078604,0,0,0,0,2.2,1.9500000000000002,,,,,,,,,,,,0,0.0,0.0,0.0,0.0,0.0
0.3601877689361572,0.3312084674835205,0.0,0.0,1.5,,,,0.0,0.0,0.8776858553839049,0.0,0.0,0.6223141446160951,0.6223141446160951,,,,,0.0,,0.0,0.0,0.0,0.728330241463964,0.0,0.0,0.728330241463964,0.728330241463964,0.0,0.0,0.0,0.0,0.0,0.0,10434.367007447308,10434.367007447308,10434.367007447308,10434.367007447308,0,0,0,0,2.2,1.9500000000000002,,,,,,,,,,,,0,0.0,0.0,0.0,0.0,0.0
0.36502504348754883,0.3360457420349121,0.0,0.0,1.5,,,,0.0,0.0,0.8813100407802017,0.0,0.0,0.6186899592197983,0.6186899592197983,,,,,0.0,,0.0,0.0,0.0,0.7248370792593644,0.0,0.0,0.7248370792593644,0.7248370792593644,0.0,0.0,0.0,0.0,0.0,0.0,10434.367007447308,10434.367007447308,10434.367007447308,10434.367007447308,0,0,0,0,2.2,1.9500000000000002,,,,,,,,,,,,0,0.0,0.0,0.0,0.0,0.0
0.3700900077819824,0.3411107063293457,0.0,0.0,1.5,,,,0.0,0.0,0.8849167829683258,0.0,0.0,0.6150832170316742,0.6150832170316742,,,,,0.0,,0.0,0.0,0.0,0.7213484376248127,0.0,0.0,0.7213484376248127,0.7213484376248127,0.0,0.0,0.0,0.0,0.0,0.0,10435.847675998226,10435.847675998226,10435.847675998226,10435.847675998226,0,0,0,0,2.2,1.9500000000000002,,,,,,,,,,,,0,0.0,0.0,0.0,0.0,0.0
0.375119686126709,0.34614038467407227,0.0,0.0,1.5,,,,0.0,0.0,0.888506102483049,0.0,0.0,0.611493897516951,0.611493897516951,,,,,0.0,,0.0,0.0,0.0,0.7178639029446332,0.0,0.0,0.7178639029446332,0.7178639029446332,0.0,0.0,0.0,0.0,0.0,0.0,10435.847675998226,10435.847675998226,10435.847675998226,10435.847675998226,0,0,0,0,2.2,1.9500000000000002,,,,,,,,,,,,0,0.0,0.0,0.0,0.0,0.0
0.3801398277282715,0.35116052627563477,0.0,0.0,1.5,,,,0.0,0.0,0.892078024511874,0.0,0.0,0.607921975488126,0.607921975488126,,,,,0.0,,0.0,0.0,0.0,0.7143844057650147,0.0,0.0,0.7143844057650147,0.7143844057650147,0.0,0.0,0.0,0.0,0.0,0.0,10437.416480612175,10437.416480612175,10437.416480612175,10437.416480612175,0,0,0,0,2.2,1.9500000000000002,,,,,,,,,,,,0,0.0,0.0,0.0,0.0,0.0
0.3850421905517578,0.3560628890991211,0.0,0.0,1.5,,,,0.0,0.0,0.8956325719281537,0.0,0.0,0.6043674280718463,0.6043674280718463,,,,,0.0,,0.0,0.0,0.0,0.7109094832559422,0.0,0.0,0.7109094832559422,0.7109094832559422,0.0,0.0,0.0,0.0,0.0,0.0,10437.416480612175,10437.416480612175,10437.416480612175,10437.416480612175,0,0,0,0,2.2,1.9500000000000002,,,,,,,,,,,,0,0.0,0.0,0.0,0.0,0.0
0.3899712562561035,0.3609919548034668,0.0,0.0,1.5,,,,0.0,0.0,0.8991697723841753,0.0,0.0,0.6008302276158247,0.6008302276158247,,,,,0.0,,0.0,0.0,0.0,0.7074400912043107,0.0,0.0,0.7074400912043107,0.7074400912043107,0.0,0.0,0.0,0.0,0.0,0.0,10439.069005445634,10439.069005445634,10439.069005445634,10439.069005445634,0,0,0,0,2.2,1.9500000000000002,,,,,,,,,,,,0,0.0,0.0,0.0,0.0,0.0
0.3949894905090332,0.3660101890563965,0.0,0.0,1.5,,,,0.0,0.0,0.9026896509834067,0.0,0.0,0.5973103490165933,0.5973103490165933,,,,,0.0,,0.0,0.0,0.0,0.7039757198462815,0.0,0.0,0.7039757198462815,0.7039757198462815,0.0,0.0,0.0,0.0,0.0,0.0,10439.069005445634,10439.069005445634,10439.069005445634,10439.069005445634,0,0,0,0,2.2,1.9500000000000002,,,,,,,,,,,,0,0.0,0.0,0.0,0.0,0.0
0.400165319442749,0.3711860179901123,0.0,0.0,1.5,,,,0.0,0.0,0.9061922377271903,0.0,0.0,0.5938077622728097,0.5938077622728097,,,,,0.0,,0.0,0.0,0.0,0.7005173487567238,0.0,0.0,0.7005173487567238,0.7005173487567238,0.0,0.0,0.0,0.0,0.0,0.0,10440.800989129171,10440.800989129171,10440.800989129171,10440.800989129171,0,0,0,0,2.2,1.9500000000000002,,,,,,,,,,,,0,0.0,0.0,0.0,0.0,0.0
0.40512514114379883,0.3761458396911621,0.0,0.0,1.5,,,,0.0,0.0,0.9096775598443868,0.0,0.0,0.5903224401556132,0.5903224401556132,,,,,0.0,,0.0,0.0,0.0,0.6970644234393091,0.0,0.0,0.6970644234393091,0.6970644234393091,0.0,0.0,0.0,0.0,0.0,0.0,10440.800989129171,10440.800989129171,10440.800989129171,10440.800989129171,0,0,0,0,2.2,1.9500000000000002,,,,,,,,,,,,0,0.0,0.0,0.0,0.0,0.0
0.4101564884185791,0.3811771869659424,0.0,0.0,1.5,,,,0.0,0.0,0.9131456495736732,0.0,0.0,0.5868543504263268,0.5868543504263268,,,,,0.0,,0.0,0.0,0.0,0.693617945857277,0.0,0.0,0.693617945857277,0.693617945857277,0.0,0.0,0.0,0.0,0.0,0.0,10442.608320086956,10442.608320086956,10442.608320086956,10442.608320086956,0,0,0,0,2.2,1.9500000000000002,,,,,,,,,,,,0,0.0,0.0,0.0,0.0,0.0
0.4150388240814209,0.3860595226287842,0.0,0.0,1.5,,,,0.0,0.0,0.9165965361682057,0.0,0.0,0.5834034638317943,0.5834034638317943,,,,,0.0,,0.0,0.0,0.0,0.6901773189064937,0.0,0.0,0.6901773189064937,0.6901773189064937,0.0,0.0,0.0,0.0,0.0,0.0,10442.608320086956,10442.608320086956,10442.608320086956,10442.608320086956,0,0,0,0,2.2,1.9500000000000002,,,,,,,,,,,,0,0.0,0.0,0.0,0.0,0.0
0.42015767097473145,0.3911783695220947,0.0,0.0,1.5,,,,0.0,0.0,0.9200302539961575,0.0,0.0,0.5799697460038425,0.5799697460038425,,,,,0.0,,0.0,0.0,0.0,0.6867435655903441,0.0,0.0,0.6867435655903441,0.6867435655903441,0.0,0.0,0.0,0.0,0.0,0.0,10444.487031975657,10444.487031975657,10444.487031975657,10444.487031975657,0,0,0,0,2.2,1.9500000000000002,,,,,,,,,,,,0,0.0,0.0,0.0,0.0,0.0
0.4251260757446289,0.3961467742919922,0.0,0.0,1.5,,,,0.0,0.0,0.9234468342373944,0.0,0.0,0.5765531657626056,0.5765531657626056,,,,,0.0,,0.0,0.0,0.0,0.6833160482473755,0.0,0.0,0.6833160482473755,0.6833160482473755,0.0,0.0,0.0,0.0,0.0,0.0,10444.487031975657,10444.487031975657,10444.487031975657,10444.487031975657,0,0,0,0,2.2,1.9500000000000002,,,,,,,,,,,,0,0.0,0.0,0.0,0.0,0.0
0.42999696731567383,0.4010176658630371,0.0,0.0,1.5,,,,0.0,0.0,0.9268463132855073,0.0,0.0,0.5731536867144927,0.5731536867144927,,,,,0.0,,0.0,0.0,0.0,0.6798958096225782,0.0,0.0,0.6798958096225782,0.6798958096225782,0.0,0.0,0.0,0.0,0.0,0.0,10446.433299241,10446.433299241,10446.433299241,10446.433299241,0,0,0,0,2.2,1.9500000000000002,,,,,,,,,,,,0,0.0,0.0,0.0,0.0,0.0
0.43509769439697266,0.40611839294433594,0.0,0.0,1.5,,,,0.0,0.0,0.9302287241528865,0.0,0.0,0.5697712758471135,0.5697712758471135,,,,,0.0,,0.0,0.0,0.0,0.6764821734758449,0.0,0.0,0.6764821734758449,0.6764821734758449,0.0,0.0,0.0,0.0,0.0,0.0,10446.433299241,10446.433299241,10446.433299241,10446.433299241,0,0,0,0,2.2,1.9500000000000002,,,,,,,,,,,,0,0.0,0.0,0.0,0.0,0.0
0.44005656242370605,0.41107726097106934,0.0,0.0,1.5,,,,0.0,0.0,0.9335941051581029,0.0,0.0,0.5664058948418971,0.5664058948418971,,,,,0.0,,0.0,0.0,0.0,0.6730762010432784,0.0,0.0,0.6730762010432784,0.6730762010432784,0.0,0.0,0.0,0.0,0.0,0.0,10448.443432790109,10448.443432790109,10448.443432790109,10448.443432790109,0,0,0,0,2.2,1.9500000000000002,,,,,,,,,,,,0,0.0,0.0,0.0,0.0,0.0
0.445112943649292,0.4161336421966553,0.0,0.0,1.5,,,,0.0,0.0,0.9369424910551792,0.0,0.0,0.5630575089448208,0.5630575089448208,,,,,0.0,,0.0,0.0,0.0,0.6696771794152613,0.0,0.0,0.6696771794152613,0.6696771794152613,0.0,0.0,0.0,0.0,0.0,0.0,10448.443432790109,10448.443432790109,10448.443432790109,10448.443432790109,0,0,0,0,2.2,1.9500000000000002,,,,,,,,,,,,0,0.0,0.0,0.0,0.0,0.0
0.4501521587371826,0.4211728572845459,0.0,0.0,1.5,,,,0.0,0.0,0.9402739219907541,0.0,0.0,0.5597260780092459,0.5597260780092459,,,,,0.0,,0.0,0.0,0.0,0.6662861871149761,0.0,0.0,0.6662861871149761,0.6662861871149761,0.0,0.0,0.0,0.0,0.0,0.0,10450.513875777826,10450.513875777826,10450.513875777826,10450.513875777826,0,0,0,0,2.2,1.9500000000000002,,,,,,,,,,,,0,0.0,0.0,0.0,0.0,0.0
0.4550588130950928,0.42607951164245605,0.0,0.0,1.5,,,,0.0,0.0,0.9435884343727798,0.0,0.0,0.5564115656272202,0.5564115656272202,,,,,0.0,,0.0,0.0,0.0,0.6629024764051509,0.0,0.0,0.6629024764051509,0.6629024764051509,0.0,0.0,0.0,0.0,0.0,0.0,10450.513875777826,10450.513875777826,10450.513875777826,10450.513875777826,0,0,0,0,2.2,1.9500000000000002,,,,,,,,,,,,0,0.0,0.0,0.0,0.0,0.0
0.46016430854797363,0.4311850070953369,0.0,0.0,1.5,,,,0.0,0.0,0.9468860700824645,0.0,0.0,0.5531139299175355,0.5531139299175355,,,,,0.0,,0.0,0.0,0.0,0.6595271419369408,0.0,0.0,0.6595271419369408,0.6595271419369408,0.0,0.0,0.0,0.0,0.0,0.0,10452.641199505,10452.641199505,10452.641199505,10452.641199505,0,0,0,0,2.2,1.9500000000000002,,,,,,,,,,,,0,0.0,0.0,0.0,0.0,0.0
0.4650380611419678,0.43605875968933105,0.0,0.0,1.5,,,,0.0,0.0,0.9501668670970752,0.0,0.0,0.5498331329029248,0.5498331329029248,,,,,0.0,,0.0,0.0,0.0,0.6561594029221464,0.0,0.0,0.6561594029221464,0.6561594029221464,0.0,0.0,0.0,0.0,0.0,0.0,10452.641199505,10452.641199505,10452.641199505,10452.641199505,0,0,0,0,2.2,1.9500000000000002,,,,,,,,,,,,0,0.0,0.0,0.0,0.0,0.0
0.4699997901916504,0.44102048873901367,0.0,0.0,1.5,,,,0.0,0.0,0.9534308689421963,0.0,0.0,0.5465691310578037,0.5465691310578037,,,,,0.0,,0.0,0.0,0.0,0.6528003690242283,0.0,0.0,0.6528003690242283,0.6528003690242283,0.0,0.0,0.0,0.0,0.0,0.0,10454.822099426787,10454.822099426787,10454.822099426787,10454.822099426787,0,0,0,0,2.2,1.9500000000000002,,,,,,,,,,,,0,0.0,0.0,0.0,0.0,0.0
0.4750678539276123,0.4460885524749756,0.0,0.0,1.5,,,,0.0,0.0,0.9566781150827851,0.0,0.0,0.5433218849172149,0.5433218849172149,,,,,0.0,,0.0,0.0,0.0,0.6494492281177527,0.0,0.0,0.6494492281177527,0.6494492281177527,0.0,0.0,0.0,0.0,0.0,0.0,10454.822099426787,10454.822099426787,10454.822099426787,10454.822099426787,0,0,0,0,2.2,1.9500000000000002,,,,,,,,,,,,0,0.0,0.0,0.0,0.0,0.0
0.4800593852996826,0.4510800838470459,0.0,0.0,1.5,,,,0.0,0.0,0.9599086506018092,0.0,0.0,0.5400913493981908,0.5400913493981908,,,,,0.0,,0.0,0.0,0.0,0.6461071038048211,0.0,0.0,0.6461071038048211,0.6461071038048211,0.0,0.0,0.0,0.0,0.0,0.0,10457.05339126899,10457.05339126899,10457.05339126899,10457.05339126899,0,0,0,0,2.2,1.9500000000000002,,,,,,,,,,,,0,0.0,0.0,0.0,0.0,0.0
0.48509669303894043,0.4561173915863037,0.0,0.0,1.5,,,,0.0,0.0,0.9631225163731865,0.0,0.0,0.5368774836268135,0.5368774836268135,,,,,0.0,,0.0,0.0,0.0,0.6427731542754522,0.0,0.0,0.6427731542754522,0.6427731542754522,0.0,0.0,0.0,0.0,0.0,0.0,10457.05339126899,10457.05339126899,10457.05339126899,10457.05339126899,0,0,0,0,2.2,1.9500000000000002,,,,,,,,,,,,0,0.0,0.0,0.0,0.0,0.0
0.49017930030822754,0.4611999988555908,0.0,0.0,1.5,,,,0.0,0.0,0.9663197589533732,0.0,0.0,0.5336802410466268,0.5336802410466268,,,,,0.0,,0.0,0.0,0.0,0.6394485160373338,0.0,0.0,0.6394485160373338,0.6394485160373338,0.0,0.0,0.0,0.0,0.0,0.0,10459.332007250308,10459.332007250308,10459.332007250308,10459.332007250308,0,0,0,0,2.2,1.9500000000000002,,,,,,,,,,,,0,0.0,0.0,0.0,0.0,0.0
0.4950873851776123,0.4661080837249756,0.0,0.0,1.5,,,,0.0,0.0,0.9695004205493211,0.0,0.0,0.5304995794506789,0.5304995794506789,,,,,0.0,,0.0,0.0,0.0,0.6361323191895855,0.0,0.0,0.6361323191895855,0.6361323191895855,0.0,0.0,0.0,0.0,0.0,0.0,10459.332007250308,10459.332007250308,10459.332007250308,10459.332007250308,0,0,0,0,2.2,1.9500000000000002,,,,,,,,,,,,0,0.0,0.0,0.0,0.0,0.0
0.5001840591430664,0.4712047576904297,0.0,0.0,1.5,,,,0.0,0.0,0.9726645491100795,0.0,0.0,0.5273354508899205,0.5273354508899205,,,,,0.0,,0.0,0.0,0.0,0.6328257121516894,0.0,0.0,0.6328257121516894,0.6328257121516894,0.0,0.0,0.0,0.0,0.0,0.0,10461.654992408514,10461.654992408514,10461.654992408514,10461.654992408514,0,0,0,0,2.2,1.9500000000000002,,,,,,,,,,,,0,0.0,0.0,0.0,0.0,0.0
0.5051596164703369,0.4761803150177002,0.0,0.0,1.5,,,,0.0,0.0,0.9758121881024214,0.0,0.0,0.5241878118975786,0.5241878118975786,,,,,0.0,,0.0,0.0,0.0,0.6295277984683786,0.0,0.0,0.6295277984683786,0.6295277984683786,0.0,0.0,0.0,0.0,0.0,0.0,10461.654992408514,10461.654992408514,10461.654992408514,10461.654992408514,0,0,0,0,2.2,1.9500000000000002,,,,,,,,,,,,0,0.0,0.0,0.0,0.0,0.0
0.510002851486206,0.48102355003356934,0.0,0.0,1.5,,,,0.0,0.0,0.9789433867899969,0.0,0.0,0.5210566132100031,0.5210566132100031,,,,,0.0,,0.0,0.0,0.0,0.6262397375150979,0.0,0.0,0.6262397375150979,0.6262397375150979,0.0,0.0,0.0,0.0,0.0,0.0,10464.0195010284,10464.0195010284,10464.0195010284,10464.0195010284,0,0,0,0,2.2,1.9500000000000002,,,,,,,,,,,,0,0.0,0.0,0.0,0.0,0.0
0.5150325298309326,0.4860532283782959,0.0,0.0,1.5,,,,0.0,0.0,0.982058189828814,0.0,0.0,0.517941810171186,0.517941810171186,,,,,0.0,,0.0,0.0,0.0,0.6229606077634156,0.0,0.0,0.6229606077634156,0.6229606077634156,0.0,0.0,0.0,0.0,0.0,0.0,10466.422793169439,10466.422793169439,10466.422793169439,10466.422793169439,0,0,0,0,2.2,1.9500000000000002,,,,,,,,,,,,0,0.0,0.0,0.0,0.0,0.0
0.5201773643493652,0.4911980628967285,0.0,0.0,1.5,,,,0.0,0.0,0.985156647721942,0.0,0.0,0.514843352278058,0.514843352278058,,,,,0.0,,0.0,0.0,0.0,0.619691578625605,0.0,0.0,0.619691578625605,0.619691578625605,0.0,0.0,0.0,0.0,0.0,0.0,10466.422793169439,10466.422793169439,10466.422793169439,10466.422793169439,0,0,0,0,2.2,1.9500000000000002,,,,,,,,,,,,0,0.0,0.0,0.0,0.0,0.0
0.52506422996521,0.49608492851257324,0.0,0.0,1.5,,,,0.0,0.0,0.9882388062465809,0.0,0.0,0.5117611937534191,0.5117611937534191,,,,,0.0,,0.0,0.0,0.0,0.6164317049277888,0.0,0.0,0.6164317049277888,0.6164317049277888,0.0,0.0,0.0,0.0,0.0,0.0,10468.862231291057,10468.862231291057,10468.862231291057,10468.862231291057,0,0,0,0,2.2,1.9500000000000002,,,,,,,,,,,,0,0.0,0.0,0.0,0.0,0.0
0.5302300453186035,0.5012507438659668,0.0,0.0,1.5,,,,0.0,0.0,0.9913047170727579,0.0,0.0,0.5086952829272421,0.5086952829272421,,,,,0.0,,0.0,0.0,0.0,0.6131821652354108,0.0,0.0,0.6131821652354108,0.6131821652354108,0.0,0.0,0.0,0.0,0.0,0.0,10468.862231291057,10468.862231291057,10468.862231291057,10468.862231291057,0,0,0,0,2.2,1.9500000000000002,,,,,,,,,,,,0,0.0,0.0,0.0,0.0,0.0
0.535172700881958,0.5061933994293213,0.0,0.0,1.5,,,,0.0,0.0,0.9943544270332834,0.0,0.0,0.5056455729667166,0.5056455729667166,,,,,0.0,,0.0,0.0,0.0,0.6099419921050959,0.0,0.0,0.6099419921050959,0.6099419921050959,0.0,0.0,0.0,0.0,0.0,0.0,10471.33527697337,10471.33527697337,10471.33527697337,10471.33527697337,0,0,0,0,2.2,1.9500000000000002,,,,,,,,,,,,0,0.0,0.0,0.0,0.0,0.0
0.5401899814605713,0.5112106800079346,0.0,0.0,1.5,,,,0.0,0.0,0.9973879888953139,0.0,0.0,0.5026120111046861,0.5026120111046861,,,,,0.0,,0.0,0.0,0.0,0.6067123724060945,0.0,0.0,0.6067123724060945,0.6067123724060945,0.0,0.0,0.0,0.0,0.0,0.0,10471.33527697337,10471.33527697337,10471.33527697337,10471.33527697337,0,0,0,0,2.2,1.9500000000000002,,,,,,,,,,,,0,0.0,0.0,0.0,0.0,0.0
0.5450296401977539,0.5160503387451172,0.0,0.0,1.5,,,,0.0,0.0,1.000405450484071,0.0,0.0,0.4995945495159291,0.4995945495159291,,,,,0.0,,0.0,0.0,0.0,0.6034923177513882,0.0,0.0,0.6034923177513882,0.6034923177513882,0.0,0.0,0.0,0.0,0.0,0.0,10471.33527697337,10471.33527697337,10471.33527697337,10471.33527697337,0,0,0,0,2.2,1.9500000000000002,,,,,,,,,,,,0,0.0,0.0,0.0,0.0,0.0
0.5499968528747559,0.5210175514221191,0.0,0.0,1.5,,,,0.0,0.0,1.00340686559656,0.0,0.0,0.49659313440344,0.49659313440344,,,,,0.0,,0.0,0.0,0.0,0.6002830224978193,0.0,0.0,0.6002830224978193,0.6002830224978193,0.0,0.0,0.0,0.0,0.0,0.0,10473.839487731331,10473.839487731331,10473.839487731331,10473.839487731331,0,0,0,0,2.2,1.9500000000000002,,,,,,,,,,,,0,0.0,0.0,0.0,0.0,0.0
0.5550329685211182,0.5260536670684814,0.0,0.0,1.5,,,,0.0,0.0,1.0063922829895207,0.0,0.0,0.49360771701047934,0.49360771701047934,,,,,0.0,,0.0,0.0,0.0,0.5970834785921125,0.0,0.0,0.5970834785921125,0.5970834785921125,0.0,0.0,0.0,0.0,0.0,0.0,10473.839487731331,10473.839487731331,10473.839487731331,10473.839487731331,0,0,0,0,2.2,1.9500000000000002,,,,,,,,,,,,0,0.0,0.0,0.0,0.0,0.0
0.5602450370788574,0.5312657356262207,0.0,0.0,1.5,,,,0.0,0.0,1.0093617574249933,0.0,0.0,0.49063824257500666,0.49063824257500666,,,,,0.0,,0.0,0.0,0.0,0.5938948870945296,0.0,0.0,0.5938948870945296,0.5938948870945296,0.0,0.0,0.0,0.0,0.0,0.0,10476.372513920143,10476.372513920143,10476.372513920143,10476.372513920143,0,0,0,0,2.2,1.9500000000000002,,,,,,,,,,,,0,0.0,0.0,0.0,0.0,0.0
0.5650074481964111,0.5360281467437744,0.0,0.0,1.5,,,,0.0,0.0,1.0123153385325736,0.0,0.0,0.4876846614674264,0.4876846614674264,,,,,0.0,,0.0,0.0,0.0,0.590716221516032,0.0,0.0,0.590716221516032,0.590716221516032,0.0,0.0,0.0,0.0,0.0,0.0,10478.932095729895,10478.932095729895,10478.932095729895,10478.932095729895,0,0,0,0,2.2,1.9500000000000002,,,,,,,,,,,,0,0.0,0.0,0.0,0.0,0.0
0.5701463222503662,0.5411670207977295,0.0,0.0,1.5,,,,0.0,0.0,1.015253081976909,0.0,0.0,0.484746918023091,0.484746918023091,,,,,0.0,,0.0,0.0,0.0,0.5875486888670974,0.0,0.0,0.5875486888670974,0.5875486888670974,0.0,0.0,0.0,0.0,0.0,0.0,10478.932095729895,10478.932095729895,10478.932095729895,10478.932095729895,0,0,0,0,2.2,1.9500000000000002,,,,,,,,,,,,0,0.0,0.0,0.0,0.0,0.0
0.5751519203186035,0.5461726188659668,0.0,0.0,1.5,,,,0.0,0.0,1.0181750382039492,0.0,0.0,0.48182496179605083,0.48182496179605083,,,,,0.0,,0.0,0.0,0.0,0.5843912454080494,0.0,0.0,0.5843912454080494,0.5843912454080494,0.0,0.0,0.0,0.0,0.0,0.0,10478.932095729895,10478.932095729895,10478.932095729895,10478.932095729895,0,0,0,0,2.2,1.9500000000000002,,,,,,,,,,,,0,0.0,0.0,0.0,0.0,0.0
0.5801773071289062,0.5511980056762695,0.0,0.0,1.5,,,,0.0,0.0,1.0210812637208306,0.0,0.0,0.47891873627916937,0.47891873627916937,,,,,0.0,,0.0,0.0,0.0,0.581245103376311,0.0,0.0,0.581245103376311,0.581245103376311,0.0,0.0,0.0,0.0,0.0,0.0,10481.516060267295,10481.516060267295,10481.516060267295,10481.516060267295,0,0,0,0,2.2,1.9500000000000002,,,,,,,,,,,,0,0.0,0.0,0.0,0.0,0.0
0.5850419998168945,0.5560626983642578,0.0,0.0,1.5,,,,0.0,0.0,1.0239718097354447,0.0,0.0,0.47602819026455534,0.47602819026455534,,,,,0.0,,0.0,0.0,0.0,0.5781092029228029,0.0,0.0,0.5781092029228029,0.5781092029228029,0.0,0.0,0.0,0.0,0.0,0.0,10481.516060267295,10481.516060267295,10481.516060267295,10481.516060267295,0,0,0,0,2.2,1.9500000000000002,,,,,,,,,,,,0,0.0,0.0,0.0,0.0,0.0
0.5899944305419922,0.5610151290893555,0.0,0.0,1.5,,,,0.0,0.0,1.0268467335395324,0.0,0.0,0.4731532664604676,0.4731532664604676,,,,,0.0,,0.0,0.0,0.0,0.5749847608175495,0.0,0.0,0.5749847608175495,0.5749847608175495,0.0,0.0,0.0,0.0,0.0,0.0,10484.122318722471,10484.122318722471,10484.122318722471,10484.122318722471,0,0,0,0,2.2,1.9500000000000002,,,,,,,,,,,,0,0.0,0.0,0.0,0.0,0.0
0.595024824142456,0.5660455226898193,0.0,0.0,1.5,,,,0.0,0.0,1.0297060870505366,0.0,0.0,0.47029391294946343,0.47029391294946343,,,,,0.0,,0.0,0.0,0.0,0.5718707022008462,0.0,0.0,0.5718707022008462,0.5718707022008462,0.0,0.0,0.0,0.0,0.0,0.0,10484.122318722471,10484.122318722471,10484.122318722471,10484.122318722471,0,0,0,0,2.2,1.9500000000000002,,,,,,,,,,,,0,0.0,0.0,0.0,0.0,0.0
0.6001014709472656,0.5711221694946289,0.0,0.0,1.5,,,,0.0,0.0,1.0325499282890813,0.0,0.0,0.4674500717109187,0.4674500717109187,,,,,0.0,,0.0,0.0,0.0,0.5687682477089301,0.0,0.0,0.5687682477089301,0.5687682477089301,0.0,0.0,0.0,0.0,0.0,0.0,10486.748863618794,10486.748863618794,10486.748863618794,10486.748863618794,0,0,0,0,2.2,1.9500000000000002,,,,,,,,,,,,0,0.0,0.0,0.0,0.0,0.0
0.6050131320953369,0.5760338306427002,0.0,0.0,1.5,,,,0.0,0.0,1.0353783098317273,0.0,0.0,0.4646216901682727,0.4646216901682727,,,,,0.0,,0.0,0.0,0.0,0.5656763085291768,0.0,0.0,0.5656763085291768,0.5656763085291768,0.0,0.0,0.0,0.0,0.0,0.0,10486.748863618794,10486.748863618794,10486.748863618794,10486.748863618794,0,0,0,0,2.2,1.9500000000000002,,,,,,,,,,,,0,0.0,0.0,0.0,0.0,0.0
0.6101944446563721,0.5812151432037354,0.0,0.0,1.5,,,,0.0,0.0,1.0381912903743507,0.0,0.0,0.46180870962564935,0.46180870962564935,,,,,0.0,,0.0,0.0,0.0,0.5625961085246609,0.0,0.0,0.5625961085246609,0.5625961085246609,0.0,0.0,0.0,0.0,0.0,0.0,10489.393766143681,10489.393766143681,10489.393766143681,10489.393766143681,0,0,0,0,2.2,1.9500000000000002,,,,,,,,,,,,0,0.0,0.0,0.0,0.0,0.0
0.6150264739990234,0.5860471725463867,0.0,0.0,1.5,,,,0.0,0.0,1.0409889231040896,0.0,0.0,0.45901107689591036,0.45901107689591036,,,,,0.0,,0.0,0.0,0.0,0.5595265459478161,0.0,0.0,0.5595265459478161,0.5595265459478161,0.0,0.0,0.0,0.0,0.0,0.0,10489.393766143681,10489.393766143681,10489.393766143681,10489.393766143681,0,0,0,0,2.2,1.9500000000000002,,,,,,,,,,,,0,0.0,0.0,0.0,0.0,0.0
0.6201753616333008,0.5911960601806641,0.0,0.0,1.5,,,,0.0,0.0,1.043771267340466,0.0,0.0,0.456228732659534,0.456228732659534,,,,,0.0,,0.0,0.0,0.0,0.5564688472752825,0.0,0.0,0.5564688472752825,0.5564688472752825,0.0,0.0,0.0,0.0,0.0,0.0,10492.055173558396,10492.055173558396,10492.055173558396,10492.055173558396,0,0,0,0,2.2,1.9500000000000002,,,,,,,,,,,,0,0.0,0.0,0.0,0.0,0.0
0.625164270401001,0.5961849689483643,0.0,0.0,1.5,,,,0.0,0.0,1.0465383768344865,0.0,0.0,0.4534616231655135,0.4534616231655135,,,,,0.0,,0.0,0.0,0.0,0.5534218988041032,0.0,0.0,0.5534218988041032,0.5534218988041032,0.0,0.0,0.0,0.0,0.0,0.0,10492.055173558396,10492.055173558396,10492.055173558396,10492.055173558396,0,0,0,0,2.2,1.9500000000000002,,,,,,,,,,,,0,0.0,0.0,0.0,0.0,0.0
0.6299922466278076,0.6010129451751709,0.0,0.0,1.5,,,,0.0,0.0,1.0492903114796686,0.0,0.0,0.45070968852033144,0.45070968852033144,,,,,0.0,,0.0,0.0,0.0,0.5503869290364323,0.0,0.0,0.5503869290364323,0.5503869290364323,0.0,0.0,0.0,0.0,0.0,0.0,10494.73130668488,10494.73130668488,10494.73130668488,10494.73130668488,0,0,0,0,2.2,1.9500000000000002,,,,,,,,,,,,0,0.0,0.0,0.0,0.0,0.0
0.6349906921386719,0.6060113906860352,0.0,0.0,1.5,,,,0.0,0.0,1.0520271255459501,0.0,0.0,0.4479728744540499,0.4479728744540499,,,,,0.0,,0.0,0.0,0.0,0.5473628132563083,0.0,0.0,0.5473628132563083,0.5473628132563083,0.0,0.0,0.0,0.0,0.0,0.0,10494.73130668488,10494.73130668488,10494.73130668488,10494.73130668488,0,0,0,0,2.2,1.9500000000000002,,,,,,,,,,,,0,0.0,0.0,0.0,0.0,0.0
0.6401689052581787,0.611189603805542,0.0,0.0,1.5,,,,0.0,0.0,1.0547488794530886,0.0,0.0,0.4452511205469114,0.4452511205469114,,,,,0.0,,0.0,0.0,0.0,0.5443507814277155,0.0,0.0,0.5443507814277155,0.5443507814277155,0.0,0.0,0.0,0.0,0.0,0.0,10497.420457467615,10497.420457467615,10497.420457467615,10497.420457467615,0,0,0,0,2.2,1.9500000000000002,,,,,,,,,,,,0,0.0,0.0,0.0,0.0,0.0
0.6450824737548828,0.6161031723022461,0.0,0.0,1.5,,,,0.0,0.0,1.0574556279467293,0.0,0.0,0.4425443720532707,0.4425443720532707,,,,,0.0,,0.0,0.0,0.0,0.541349698728129,0.0,0.0,0.541349698728129,0.541349698728129,0.0,0.0,0.0,0.0,0.0,0.0,10497.420457467615,10497.420457467615,10497.420457467615,10497.420457467615,0,0,0,0,2.2,1.9500000000000002,,,,,,,,,,,,0,0.0,0.0,0.0,0.0,0.0
0.6500201225280762,0.6210408210754395,0.0,0.0,1.5,,,,0.0,0.0,1.0601474319269455,0.0,0.0,0.4398525680730545,0.4398525680730545,,,,,0.0,,0.0,0.0,0.0,0.5383607960432204,0.0,0.0,0.5383607960432204,0.5383607960432204,0.0,0.0,0.0,0.0,0.0,0.0,10500.120986608663,10500.120986608663,10500.120986608663,10500.120986608663,0,0,0,0,2.2,1.9500000000000002,,,,,,,,,,,,0,0.0,0.0,0.0,0.0,0.0
0.6551694869995117,0.626190185546875,0.0,0.0,1.5,,,,0.0,0.0,1.0628243465735234,0.0,0.0,0.4371756534264766,0.4371756534264766,,,,,0.0,,0.0,0.0,0.0,0.5353829293155816,0.0,0.0,0.5353829293155816,0.5353829293155816,0.0,0.0,0.0,0.0,0.0,0.0,10500.120986608663,10500.120986608663,10500.120986608663,10500.120986608663,0,0,0,0,2.2,1.9500000000000002,,,,,,,,,,,,0,0.0,0.0,0.0,0.0,0.0
0.6601366996765137,0.631157398223877,0.0,0.0,1.5,,,,0.0,0.0,1.0654864332226992,0.0,0.0,0.4345135667773008,0.4345135667773008,,,,,0.0,,0.0,0.0,0.0,0.5324173298351703,0.0,0.0,0.5324173298351703,0.5324173298351703,0.0,0.0,0.0,0.0,0.0,0.0,10502.831321273936,10502.831321273936,10502.831321273936,10502.831321273936,0,0,0,0,2.2,1.9500000000000002,,,,,,,,,,,,0,0.0,0.0,0.0,0.0,0.0
0.6651694774627686,0.6361901760101318,0.0,0.0,1.5,,,,0.0,0.0,1.068133747448438,0.0,0.0,0.43186625255156197,0.43186625255156197,,,,,0.0,,0.0,0.0,0.0,0.5294628451477595,0.0,0.0,0.5294628451477595,0.5294628451477595,0.0,0.0,0.0,0.0,0.0,0.0,10502.831321273936,10502.831321273936,10502.831321273936,10502.831321273936,0,0,0,0,2.2,1.9500000000000002,,,,,,,,,,,,0,0.0,0.0,0.0,0.0,0.0
0.6699910163879395,0.6410117149353027,0.0,0.0,1.5,,,,0.0,0.0,1.0707663509806988,0.0,0.0,0.42923364901930117,0.42923364901930117,,,,,0.0,,0.0,0.0,0.0,0.5265207064521594,0.0,0.0,0.5265207064521594,0.5265207064521594,0.0,0.0,0.0,0.0,0.0,0.0,10505.549952868863,10505.549952868863,10505.549952868863,10505.549952868863,0,0,0,0,2.2,1.9500000000000002,,,,,,,,,,,,0,0.0,0.0,0.0,0.0,0.0
0.6751294136047363,0.6461501121520996,0.0,0.0,1.5,,,,0.0,0.0,1.0733842997492133,0.0,0.0,0.42661570025078666,0.42661570025078666,,,,,0.0,,0.0,0.0,0.0,0.5235897537028832,0.0,0.0,0.5235897537028832,0.5235897537028832,0.0,0.0,0.0,0.0,0.0,0.0,10505.549952868863,10505.549952868863,10505.549952868863,10505.549952868863,0,0,0,0,2.2,1.9500000000000002,,,,,,,,,,,,0,0.0,0.0,0.0,0.0,0.0
0.6800405979156494,0.6510612964630127,0.0,0.0,1.5,,,,0.0,0.0,1.0759876558368802,0.0,0.0,0.42401234416311984,0.42401234416311984,,,,,0.0,,0.0,0.0,0.0,0.5206712175333774,0.0,0.0,0.5206712175333774,0.5206712175333774,0.0,0.0,0.0,0.0,0.0,0.0,10508.275434881614,10508.275434881614,10508.275434881614,10508.275434881614,0,0,0,0,2.2,1.9500000000000002,,,,,,,,,,,,0,0.0,0.0,0.0,0.0,0.0
0.6850221157073975,0.6560428142547607,0.0,0.0,1.5,,,,0.0,0.0,1.0785764754922853,0.0,0.0,0.4214235245077147,0.4214235245077147,,,,,0.0,,0.0,0.0,0.0,0.5177639310810246,0.0,0.0,0.5177639310810246,0.5177639310810246,0.0,0.0,0.0,0.0,0.0,0.0,10511.006380792061,10511.006380792061,10511.006380792061,10511.006380792061,0,0,0,0,2.2,1.9500000000000002,,,,,,,,,,,,0,0.0,0.0,0.0,0.0,0.0
0.6901776790618896,0.6611983776092529,0.0,0.0,1.5,,,,0.0,0.0,1.0811508211120862,0.0,0.0,0.41884917888791384,0.41884917888791384,,,,,0.0,,0.0,0.0,0.0,0.5148691239601851,0.0,0.0,0.5148691239601851,0.5148691239601851,0.0,0.0,0.0,0.0,0.0,0.0,10511.006380792061,10511.006380792061,10511.006380792061,10511.006380792061,0,0,0,0,2.2,1.9500000000000002,,,,,,,,,,,,0,0.0,0.0,0.0,0.0,0.0
0.6950459480285645,0.6660666465759277,0.0,0.0,1.5,,,,0.0,0.0,1.0837107492282605,0.0,0.0,0.4162892507717395,0.4162892507717395,,,,,0.0,,0.0,0.0,0.0,0.5119856232348503,0.0,0.0,0.5119856232348503,0.5119856232348503,0.0,0.0,0.0,0.0,0.0,0.0,10511.006380792061,10511.006380792061,10511.006380792061,10511.006380792061,0,0,0,0,2.2,1.9500000000000002,,,,,,,,,,,,0,0.0,0.0,0.0,0.0,0.0
0.7000463008880615,0.6710669994354248,0.0,0.0,1.5,,,,0.0,0.0,1.0862563225135924,0.0,0.0,0.4137436774864076,0.4137436774864076,,,,,0.0,,0.0,0.0,0.0,0.5091146570663629,0.0,0.0,0.5091146570663629,0.5091146570663629,0.0,0.0,0.0,0.0,0.0,0.0,10513.741462044734,10513.741462044734,10513.741462044734,10513.741462044734,0,0,0,0,2.2,1.9500000000000002,,,,,,,,,,,,0,0.0,0.0,0.0,0.0,0.0
0.7051446437835693,0.6761653423309326,0.0,0.0,1.5,,,,0.0,0.0,1.0887875977493908,0.0,0.0,0.4112124022506092,0.4112124022506092,,,,,0.0,,0.0,0.0,0.0,0.506255047159683,0.0,0.0,0.506255047159683,0.506255047159683,0.0,0.0,0.0,0.0,0.0,0.0,10513.741462044734,10513.741462044734,10513.741462044734,10513.741462044734,0,0,0,0,2.2,1.9500000000000002,,,,,,,,,,,,0,0.0,0.0,0.0,0.0,0.0
0.7099883556365967,0.68100905418396,0.0,0.0,1.5,,,,0.0,0.0,1.0913046378484323,0.0,0.0,0.40869536215156765,0.40869536215156765,,,,,0.0,,0.0,0.0,0.0,0.5034080198083153,0.0,0.0,0.5034080198083153,0.5034080198083153,0.0,0.0,0.0,0.0,0.0,0.0,10516.47940608405,10516.47940608405,10516.47940608405,10516.47940608405,0,0,0,0,2.2,1.9500000000000002,,,,,,,,,,,,0,0.0,0.0,0.0,0.0,0.0
0.7150123119354248,0.6860330104827881,0.0,0.0,1.5,,,,0.0,0.0,1.093807499808653,0.0,0.0,0.4061925001913469,0.4061925001913469,,,,,0.0,,0.0,0.0,0.0,0.5005723920441448,0.0,0.0,0.5005723920441448,0.5005723920441448,0.0,0.0,0.0,0.0,0.0,0.0,10516.47940608405,10516.47940608405,10516.47940608405,10516.47940608405,0,0,0,0,2.2,1.9500000000000002,,,,,,,,,,,,0,0.0,0.0,0.0,0.0,0.0
0.7200679779052734,0.6910886764526367,0.0,0.0,1.5,,,,0.0,0.0,1.0962962467481354,0.0,0.0,0.4037037532518646,0.4037037532518646,,,,,0.0,,0.0,0.0,0.0,0.49774938789647327,0.0,0.0,0.49774938789647327,0.49774938789647327,0.0,0.0,0.0,0.0,0.0,0.0,10519.218994450039,10519.218994450039,10519.218994450039,10519.218994450039,0,0,0,0,2.2,1.9500000000000002,,,,,,,,,,,,0,0.0,0.0,0.0,0.0,0.0
0.7251529693603516,0.6961736679077148,0.0,0.0,1.5,,,,0.0,0.0,1.0987709358500484,0.0,0.0,0.40122906414995163,0.40122906414995163,,,,,0.0,,0.0,0.0,0.0,0.4949378203826098,0.0,0.0,0.4949378203826098,0.4949378203826098,0.0,0.0,0.0,0.0,0.0,0.0,10519.218994450039,10519.218994450039,10519.218994450039,10519.218994450039,0,0,0,0,2.2,1.9500000000000002,,,,,,,,,,,,0,0.0,0.0,0.0,0.0,0.0
0.7301833629608154,0.7012040615081787,0.0,0.0,1.5,,,,0.0,0.0,1.1012316304044938,0.0,0.0,0.3987683695955062,0.3987683695955062,,,,,0.0,,0.0,0.0,0.0,0.4921389108891045,0.0,0.0,0.4921389108891045,0.4921389108891045,0.0,0.0,0.0,0.0,0.0,0.0,10521.959060933013,10521.959060933013,10521.959060933013,10521.959060933013,0,0,0,0,2.2,1.9500000000000002,,,,,,,,,,,,0,0.0,0.0,0.0,0.0,0.0
0.7351088523864746,0.7061295509338379,0.0,0.0,1.5,,,,0.0,0.0,1.1036783877497471,0.0,0.0,0.39632161225025286,0.39632161225025286,,,,,0.0,,0.0,0.0,0.0,0.4893514690506501,0.0,0.0,0.4893514690506501,0.4893514690506501,0.0,0.0,0.0,0.0,0.0,0.0,10521.959060933013,10521.959060933013,10521.959060933013,10521.959060933013,0,0,0,0,2.2,1.9500000000000002,,,,,,,,,,,,0,0.0,0.0,0.0,0.0,0.0
0.740168571472168,0.7111892700195312,0.0,0.0,1.5,,,,0.0,0.0,1.1061112713159957,0.0,0.0,0.39388872868400426,0.39388872868400426,,,,,0.0,,0.0,0.0,0.0,0.4865767132496986,0.0,0.0,0.4865767132496986,0.4865767132496986,0.0,0.0,0.0,0.0,0.0,0.0,10524.698489785453,10524.698489785453,10524.698489785453,10524.698489785453,0,0,0,0,2.2,1.9500000000000002,,,,,,,,,,,,0,0.0,0.0,0.0,0.0,0.0
0.7451431751251221,0.7161638736724854,0.0,0.0,1.5,,,,0.0,0.0,1.108530338567719,0.0,0.0,0.391469661432281,0.391469661432281,,,,,0.0,,0.0,0.0,0.0,0.4838134503446325,0.0,0.0,0.4838134503446325,0.4838134503446325,0.0,0.0,0.0,0.0,0.0,0.0,10524.698489785453,10524.698489785453,10524.698489785453,10524.698489785453,0,0,0,0,2.2,1.9500000000000002,,,,,,,,,,,,0,0.0,0.0,0.0,0.0,0.0
0.7499909400939941,0.7210116386413574,0.0,0.0,1.5,,,,0.0,0.0,1.1109356530445642,0.0,0.0,0.3890643469554358,0.3890643469554358,,,,,0.0,,0.0,0.0,0.0,0.48106289536906505,0.0,0.0,0.48106289536906505,0.48106289536906505,0.0,0.0,0.0,0.0,0.0,0.0,10527.43621398952,10527.43621398952,10527.43621398952,10527.43621398952,0,0,0,0,2.2,1.9500000000000002,,,,,,,,,,,,0,0.0,0.0,0.0,0.0,0.0
0.7550837993621826,0.7261044979095459,0.0,0.0,1.5,,,,0.0,0.0,1.1133272723094971,0.0,0.0,0.38667272769050287,0.38667272769050287,,,,,0.0,,0.0,0.0,0.0,0.47832385298658137,0.0,0.0,0.47832385298658137,0.47832385298658137,0.0,0.0,0.0,0.0,0.0,0.0,10527.43621398952,10527.43621398952,10527.43621398952,10527.43621398952,0,0,0,0,2.2,1.9500000000000002,,,,,,,,,,,,0,0.0,0.0,0.0,0.0,0.0
0.7601714134216309,0.7311921119689941,0.0,0.0,1.5,,,,0.0,0.0,1.1157052599822634,0.0,0.0,0.38429474001773656,0.38429474001773656,,,,,0.0,,0.0,0.0,0.0,0.47559753455324344,0.0,0.0,0.47559753455324344,0.47559753455324344,0.0,0.0,0.0,0.0,0.0,0.0,10530.171213578715,10530.171213578715,10530.171213578715,10530.171213578715,0,0,0,0,2.2,1.9500000000000002,,,,,,,,,,,,0,0.0,0.0,0.0,0.0,0.0
0.7650980949401855,0.7361187934875488,0.0,0.0,1.5,,,,0.0,0.0,1.1180696736977405,0.0,0.0,0.38193032630225954,0.38193032630225954,,,,,0.0,,0.0,0.0,0.0,0.47288274309539186,0.0,0.0,0.47288274309539186,0.47288274309539186,0.0,0.0,0.0,0.0,0.0,0.0,10532.902514012034,10532.902514012034,10532.902514012034,10532.902514012034,0,0,0,0,2.2,1.9500000000000002,,,,,,,,,,,,0,0.0,0.0,0.0,0.0,0.0
0.7701816558837891,0.7412023544311523,0.0,0.0,1.5,,,,0.0,0.0,1.1204205771276319,0.0,0.0,0.3795794228723681,0.3795794228723681,,,,,0.0,,0.0,0.0,0.0,0.4701806859782952,0.0,0.0,0.4701806859782952,0.4701806859782952,0.0,0.0,0.0,0.0,0.0,0.0,10532.902514012034,10532.902514012034,10532.902514012034,10532.902514012034,0,0,0,0,2.2,1.9500000000000002,,,,,,,,,,,,0,0.0,0.0,0.0,0.0,0.0
0.775144100189209,0.7461647987365723,0.0,0.0,1.5,,,,0.0,0.0,1.1227580279532592,0.0,0.0,0.3772419720467408,0.3772419720467408,,,,,0.0,,0.0,0.0,0.0,0.46749016512544755,0.0,0.0,0.46749016512544755,0.46749016512544755,0.0,0.0,0.0,0.0,0.0,0.0,10532.902514012034,10532.902514012034,10532.902514012034,10532.902514012034,0,0,0,0,2.2,1.9500000000000002,,,,,,,,,,,,0,0.0,0.0,0.0,0.0,0.0
0.780189037322998,0.7512097358703613,0.0,0.0,1.5,,,,0.0,0.0,1.1250820898713243,0.0,0.0,0.3749179101286757,0.3749179101286757,,,,,0.0,,0.0,0.0,0.0,0.46481238361301175,0.0,0.0,0.46481238361301175,0.46481238361301175,0.0,0.0,0.0,0.0,0.0,0.0,10535.62918459922,10535.62918459922,10535.62918459922,10535.62918459922,0,0,0,0,2.2,1.9500000000000002,,,,,,,,,,,,0,0.0,0.0,0.0,0.0,0.0
0.7850320339202881,0.7560527324676514,0.0,0.0,1.5,,,,0.0,0.0,1.1273928205851926,0.0,0.0,0.37260717941480737,0.37260717941480737,,,,,0.0,,0.0,0.0,0.0,0.4621461427736601,0.0,0.0,0.4621461427736601,0.4621461427736601,0.0,0.0,0.0,0.0,0.0,0.0,10535.62918459922,10535.62918459922,10535.62918459922,10535.62918459922,0,0,0,0,2.2,1.9500000000000002,,,,,,,,,,,,0,0.0,0.0,0.0,0.0,0.0
